Event Identifier,Event Name,Event Record,First Date Year,First Date,Last Date,Venue Identifier,Venue Name,Suburb,State,Country,Latitude,Longitude,Primary Genre,Secondary Genre,Organisations,Subjects,Contributor Count,Resource Count,Works,,,
438,Guerin / Serle / Forsythe,https://ausstage.edu.au/pages/event/438,2013,28/5/2013,1/6/2013,20515,Opéra Nouvel,Lyon,O/S,France,45.767746,4.836021,Dance,,Ballet de l'Opéra de Lyon,,6,7,"Black Box, One Flat Thing, Reproduced, Sync",,,
1512,Dreams in an Empty City,https://ausstage.edu.au/pages/event/1512,1988,8/9/1988,,665,Lyric Hammersmith,Hammersmith,O/S,England,51.493026,-0.226502,Theatre - Spoken Word,,,,10,1,Dreams in an Empty City,,,
1566,Emerald City,https://ausstage.edu.au/pages/event/1566,1988,29/11/1988,,673,Perry Street Theater,New York,O/S,United States of America,40.735872,-74.002481,Theatre - Spoken Word,,The New York Theatre Workshop,,9,5,Emerald City,,,
1890,Emerald City,https://ausstage.edu.au/pages/event/1890,1988,9/5/1988,,709,Lyric Theatre,Leicester,O/S,England,51.511291,-0.13349,Theatre - Spoken Word,Drama,Sydney Theatre Company,,13,8,Emerald City,,,
1934,Summer of the 17th Doll & Away,https://ausstage.edu.au/pages/event/1934,1988,22/7/1988,,714,Pepsico Summerfare New York,New York,O/S,United States of America,40.717081,-73.962879,Theatre - Spoken Word,Drama,"Sydney Theatre Company, Pepsico Summerfare",,12,4,"Away, Summer of the Seventeenth Doll",,,
12650,Greek Tragedy,https://ausstage.edu.au/pages/event/12650,1990,13/8/1990,,2844,Church Hill Theatre,Edinburgh,O/S,Scotland,55.932662,-3.209705,Theatre - Spoken Word,,"Company B Belvoir, Theatre Royal, Stratford East",Migrants,10,9,Greek Tragedy,,,
14712,Face to Face,https://ausstage.edu.au/pages/event/14712,2002,9/5/2002,12/5/2002,10715,Sao Paulo,Sao Paulo,O/S,Brazil,-23.541,-46.645,Theatre - Spoken Word,,"Perth Theatre Company, Ensemble Theatre Pty Ltd",,12,0,Face to Face,,,
14911,Summer of the Seventeenth Doll,https://ausstage.edu.au/pages/event/14911,1957,30/4/1957,,3026,New Theatre,London,O/S,England,51.511111,-0.127222,Theatre - Spoken Word,,"The Australian Elizabethan Theatre Trust, The St. James Players",,11,12,Summer of the Seventeenth Doll,,,
14917,Summer of the Seventeenth Doll,https://ausstage.edu.au/pages/event/14917,1957,8/4/1957,,3028,"Theatre Royal, Nottingham",Nottinghamshire County,O/S,England,52.955507,-1.151659,Theatre - Spoken Word,,"The Australian Elizabethan Theatre Trust, The St. James Players",,11,0,Summer of the Seventeenth Doll,,,
14924,Summer of The Seventeenth Doll,https://ausstage.edu.au/pages/event/14924,1958,31/3/1958,,3031,The Golders Green Hippodrome,Barnet,O/S,England,51.571709,-0.193398,Theatre - Spoken Word,Drama,"Carl Clopet Productions, Harold French Ltd",,10,1,Summer of the Seventeenth Doll,,,
14925,Summer of the Seventeenth Doll,https://ausstage.edu.au/pages/event/14925,1958,1958-09,,3032,The Fireside Theatre,Garden City,O/S,United States of America,40.759381,-73.975092,Theatre - Spoken Word,Drama,The Australian Elizabethan Theatre Trust,,9,0,Summer of the Seventeenth Doll,,,
14926,Summer of the Seventeenth Doll,https://ausstage.edu.au/pages/event/14926,1958,19/5/1958,,3033,Gaiety Theatre,Dublin,O/S,Ireland,53.34024,-6.261846,Theatre - Spoken Word,Drama,"Carl Clopet Productions, Harold French Ltd",,9,0,Summer of the Seventeenth Doll,,,
14927,Summer of the Seventeenth Doll,https://ausstage.edu.au/pages/event/14927,1973,25/7/1973,11/8/1973,3034,Salisbury Playhouse (-1976),Salisbury,O/S,England,51.070442,-1.801596,Theatre - Spoken Word,Drama,The Salisbury Arts Theatre Ltd.,,12,0,Summer of the Seventeenth Doll,,,
14928,Summer of the Seventeenth Doll,https://ausstage.edu.au/pages/event/14928,1958,23/5/1958,,3035,Grand Theatre,Wolverhampton,O/S,England,52.586626,-2.1244,Theatre - Spoken Word,Drama,The Wolverhampton Repertory Company,,11,0,Summer of the Seventeenth Doll,,,
15017,Summer of the Seventeenth Doll,https://ausstage.edu.au/pages/event/15017,1958,31/3/1958,13/4/1958,3042,Nottingham Playhouse,Nottingham,O/S,England,52.953815,-1.156286,Theatre - Spoken Word,Drama,Nottingham Theatre Trust Ltd.,,11,1,Summer of the Seventeenth Doll,,,
15021,Summer of the Seventeenth Doll,https://ausstage.edu.au/pages/event/15021,1958,18/8/1958,31/8/1958,3043,Belgrade Theatre,Coventry,O/S,England,52.409855,-1.514092,Theatre - Spoken Word,Drama,"Belgrade Theatre Company, The Belgrade Theatre Trust (Coventry) Ltd.",,11,0,Summer of the Seventeenth Doll,,,
15028,Summer of the Seventeenth Doll,https://ausstage.edu.au/pages/event/15028,1959,7/5/1959,,11008,Grand Opera House (1914-1977),Wellington,O/S,New Zealand,-41.2917234,174.7776787,Theatre - Spoken Word,Drama,"The Australian Elizabethan Theatre Trust, J C Williamson Theatres Limited (1943-1976), The New Zealand Players Theatre Trust",,12,0,Summer of the Seventeenth Doll,,,
15033,A Breach in the Wall,https://ausstage.edu.au/pages/event/15033,1970,27/6/1970,11/7/1970,17321,The Marlowe Theatre (1951-1981),Canterbury,O/S,England,51.277894,1.079409,Theatre - Spoken Word,Drama,"The Marlowe Theatre Company, The Canterbury Theatre Trust",,12,0,A Breach in the Wall,,,
15037,Summer of the Seventeenth Doll,https://ausstage.edu.au/pages/event/15037,1958,22/1/1958,15/2/1958,3045,Coronet Theatre,New York,O/S,United States of America,40.761075,-73.985756,Theatre - Spoken Word,Drama,"The Australian Elizabethan Theatre Trust, The Playwrights' Company, The St. James Players, The Theatre Guild",,10,1,Summer of the Seventeenth Doll,,,
15111,The Piccadilly Bushman,https://ausstage.edu.au/pages/event/15111,1965,20/9/1965,9/10/1965,3050,Playhouse Theatre,Liverpool,O/S,England,53.406419,-2.982332,Theatre - Spoken Word,"Comedy, Drama, Satire","Liverpool Repertory Theatre, The Arts Council of Great Britain",Australian National Identity,14,1,The Piccadilly Bushman,,,
15203,Summer of the Seventeenth Doll,https://ausstage.edu.au/pages/event/15203,1959,27/5/1959,6/6/1959,3238,His Majesty's Theatre,Auckland,O/S,New Zealand,-36.847928,174.765134,Theatre - Spoken Word,Drama,"The Australian Elizabethan Theatre Trust, Auckland Festival Society Inc., J C Williamson Theatres Limited (1943-1976), The New Zealand Players Theatre Trust",,11,0,Summer of the Seventeenth Doll,,,
15206,Summer of the Seventeenth Doll,https://ausstage.edu.au/pages/event/15206,1959,24/7/1959,30/7/1959,3069,Arena Theatre,Wolverhampton,O/S,England,52.586991,-2.126686,Theatre - Spoken Word,Drama,Arena Theatre Company,,11,0,Summer of the Seventeenth Doll,,,
15209,Summer of the Seventeenth Doll,https://ausstage.edu.au/pages/event/15209,1962,7/4/1962,18/4/1962,3070,Carnegie Institute of Technology Theatre,Pittsburgh,O/S,United States of America,40.432633,-79.964923,Theatre - Spoken Word,Drama,Carnegie Institute of Technology,,13,0,Summer of the Seventeenth Doll,,,
15218,Summer of the Seventeenth Doll,https://ausstage.edu.au/pages/event/15218,1967,5/12/1967,16/12/1967,3073,Sheffield Playhouse,Sheffield,O/S,England,53.382905,-1.473688,Theatre - Spoken Word,Drama,The Sheffield Repertory Company Ltd,,12,0,Summer of the Seventeenth Doll,,,
15243,Summer of the Seventeenth Doll,https://ausstage.edu.au/pages/event/15243,1990,9/2/1990,3/3/1990,3078,Birmingham Repertory Theatre (1971-),Birmingham,O/S,England,52.479483,-1.90921,Theatre - Spoken Word,Drama,The Birmingham Repertory Company,,12,0,Summer of the Seventeenth Doll,,,
15253,Summer of the Seventeenth Doll,https://ausstage.edu.au/pages/event/15253,1968,20/2/1968,,3080,St. Marks Playhouse,New York,O/S,United States of America,40.728868,-73.987916,Theatre - Spoken Word,Drama,The Negro Ensemble Company,,12,0,Summer of the Seventeenth Doll,,,
15257,Summer of the Seventeenth Doll,https://ausstage.edu.au/pages/event/15257,1957,1957-04,,3082,Royal Lyceum Theatre,Edinburgh,O/S,Scotland,55.946856,-3.204413,Theatre - Spoken Word,Drama,"The Australian Elizabethan Theatre Trust, The St. James Players",,9,0,Summer of the Seventeenth Doll,,,
16826,The Little Hut,https://ausstage.edu.au/pages/event/16826,1956,31/3/1956,14/4/1956,3238,His Majesty's Theatre,Auckland,O/S,New Zealand,-36.847928,174.765134,Theatre - Spoken Word,Comedy,"The Garnet H Carroll Management, H. M. Tennent Ltd.",,10,0,,,,
16829,Both Ends Meet,https://ausstage.edu.au/pages/event/16829,1956,16/4/1956,,3238,His Majesty's Theatre,Auckland,O/S,New Zealand,-36.847928,174.765134,Theatre - Spoken Word,Comedy,The Garnet H Carroll Management,,7,0,,,,
17244,See How They Run,https://ausstage.edu.au/pages/event/17244,1952,26/2/1952,,3238,His Majesty's Theatre,Auckland,O/S,New Zealand,-36.847928,174.765134,Theatre - Spoken Word,"Comedy, Farce","The Garnet H Carroll Management, Aztec Services Pty Ltd, J C Williamson Theatres Limited (1943-1976)",,11,0,See How They Run,,,
17460,Separate Tables / The Sleeping Prince,https://ausstage.edu.au/pages/event/17460,1955,1955,,3066,Auckland,Auckland,O/S,New Zealand,-36.84846,174.763332,Theatre - Spoken Word,"Comedy, Drama",The Garnet H Carroll Management,,22,0,"Separate Tables, The Sleeping Prince",,,
17531,Speaking In Tongues,https://ausstage.edu.au/pages/event/17531,2001,15/11/2001,20/1/2002,3302,Gramercy Theatre,New York,O/S,United States of America,40.7399,-73.984911,Theatre - Spoken Word,,Roundabout Theater Company,,9,1,Speaking in Tongues,,,
17885,The Merry Widow,https://ausstage.edu.au/pages/event/17885,1956,28/4/1956,,3238,His Majesty's Theatre,Auckland,O/S,New Zealand,-36.847928,174.765134,Music Theatre,"Comedy, Drama, Operetta, Romantic","The Australian Light Opera Company, J C Williamson Theatres Limited (1943-1976)",,17,0,The Merry Widow,,,
17949,The Perfectionist,https://ausstage.edu.au/pages/event/17949,1983,16/6/1983,,3352,Hampstead Theatre,Swiss Cottage,O/S,England,51.542675,-0.173787,Theatre - Spoken Word,Drama,Hampstead Theatre,"Careers, Marriage, Parenting",9,0,The Perfectionist,,,
17954,Siren,https://ausstage.edu.au/pages/event/17954,1999,23/11/1999,12/12/1999,3353,The Grace Theatre,London,O/S,England,51.472042,-0.165593,Theatre - Spoken Word,Drama,"Large Beast Productions, Parlour Productions",,11,1,Siren,,,
17996,Money and Friends,https://ausstage.edu.au/pages/event/17996,1994,27/8/1994,8/10/1994,3363,The Court Theatre (1905-2023),Christchurch,O/S,New Zealand,-43.531124,172.628826,Theatre - Spoken Word,"Comedy, Drama, Tragedy",Court Theatre Christchurch,,14,0,Money and Friends,,,
18011,Brilliant Lies,https://ausstage.edu.au/pages/event/18011,1996,22/10/1996,10/11/1996,3369,Rosemary Branch Theatre,Islington,O/S,England,51.537523,-0.086903,Theatre - Spoken Word,"Drama, Thriller",The Rosemary Branch Theatre Company,Social Issues,11,0,Brilliant Lies,,,
18016,The Golden Age,https://ausstage.edu.au/pages/event/18016,1996,1/10/1996,20/10/1996,3369,Rosemary Branch Theatre,Islington,O/S,England,51.537523,-0.086903,Theatre - Spoken Word,Drama,The Rosemary Branch Theatre Company,Colonial,6,0,The Golden Age,,,
18019,The Club,https://ausstage.edu.au/pages/event/18019,1980,4/3/1980,12/4/1980,3370,The Old Vic Theatre,London,O/S,England,51.502249,-0.109663,Theatre - Spoken Word,"Comedy, Drama","Nimrod Street Theatre Company Ltd, Australia Council for the Arts, New South Wales Government, Singapore Airlines Ltd",,10,2,The Club,,,
18029,Players,https://ausstage.edu.au/pages/event/18029,1978,29/8/1978,24/9/1978,3373,Lyceum Theatre,New York,O/S,United States of America,40.757736,-73.98466,Theatre - Spoken Word,Drama,"Eddie Kulukundis, The John F Kennedy Center for The Performing Arts",,11,1,The Club,,,
18030,The Removalists,https://ausstage.edu.au/pages/event/18030,1975,1975,,3363,The Court Theatre (1905-2023),Christchurch,O/S,New Zealand,-43.531124,172.628826,Theatre - Spoken Word,"Black Comedy, Drama",Court Theatre Christchurch,,11,0,The Removalists,,,
18031,The Perfectionist,https://ausstage.edu.au/pages/event/18031,1984,12/5/1984,,3363,The Court Theatre (1905-2023),Christchurch,O/S,New Zealand,-43.531124,172.628826,Theatre - Spoken Word,"Comedy, Drama",Court Theatre Christchurch,"Careers, Heterosexual Relationships, Marriage, Parenting",12,0,The Perfectionist,,,
18032,The Club,https://ausstage.edu.au/pages/event/18032,1979,1979,,3363,The Court Theatre (1905-2023),Christchurch,O/S,New Zealand,-43.531124,172.628826,Theatre - Spoken Word,"Comedy, Drama",Court Theatre Christchurch,,12,0,The Club,,,
18033,Travelling North,https://ausstage.edu.au/pages/event/18033,1999,1999,,3374,Stables Theatre,Ellerslie,O/S,New Zealand,-36.898246,174.810778,Theatre - Spoken Word,"Comedy, Drama, Romantic",Ellerslie Theatrical Society Inc,,15,0,Travelling North,,,
18146,What If You Died Tomorrow?,https://ausstage.edu.au/pages/event/18146,1974,1974-09,1974,14028,Comedy Theatre,London,O/S,England,51.509342,-0.131685,Theatre - Spoken Word,Drama,"The Old Tote Theatre Company, H. M. Tennent Ltd., Michael Linnit, The Australian Elizabethan Theatre Trust",,12,0,What If You Died Tomorrow?,,,
18147,Brilliant Lies,https://ausstage.edu.au/pages/event/18147,1999,18/5/1999,22/5/1999,3403,The Old Fire Station Theatre,Oxford,O/S,England,51.753583,-1.262339,Theatre - Spoken Word,"Drama, Thriller",Broad Street Productions,Sexual Identity,11,0,Brilliant Lies,,,
18148,Travelling North,https://ausstage.edu.au/pages/event/18148,1980,4/6/1980,5/7/1980,665,Lyric Hammersmith,Hammersmith,O/S,England,51.493026,-0.226502,Theatre - Spoken Word,Drama,Lyric Theatre,Ageing,14,1,Travelling North,,,
18153,Sons of Cain,https://ausstage.edu.au/pages/event/18153,1986,19/5/1986,,13446,Wyndham's Theatre,London,O/S,England,51.511052,-0.128221,Theatre - Spoken Word,Comedy,"The Australian Elizabethan Theatre Trust, The Theatre of Comedy Company",Social Issues,14,1,Sons of Cain,,,
18178,The Removalists,https://ausstage.edu.au/pages/event/18178,1973,17/7/1973,,3408,Royal Court Theatre,London,O/S,England,51.492574,-0.156634,Theatre - Spoken Word,"Black Comedy, Drama","The English Stage Company, Harry M. Miller",,11,1,The Removalists,,,
18186,Don's Party,https://ausstage.edu.au/pages/event/18186,1975,4/3/1975,,3408,Royal Court Theatre,London,O/S,England,51.492574,-0.156634,Theatre - Spoken Word,"Comedy, Drama","The English Stage Company, Eddie Kulukundis",Social Issues,16,0,Don's Party,,,
18248,The Removalists,https://ausstage.edu.au/pages/event/18248,1974,1974,,3422,The Phoenix Theatre,New York,O/S,United States of America,43.23130851,-76.30080992,Theatre - Spoken Word,"Black Comedy, Drama",New Phoenix Repertory Company,,12,0,The Removalists,,,
18269,The Club,https://ausstage.edu.au/pages/event/18269,2001,10/7/2001,28/7/2001,3430,The Old Red Lion Theatre,Clerkenwell,O/S,England,51.531466,-0.106071,Theatre - Spoken Word,"Comedy, Drama",John Thomas Productions,,11,1,The Club,,,
18283,Dead White Males,https://ausstage.edu.au/pages/event/18283,1996,8/2/1996,2/3/1996,3435,Nuffield Theatre,Southampton,O/S,England,50.935856,-1.396712,Theatre - Spoken Word,"Comedy, Drama",The Nuffield Theatre,,16,1,Dead White Males,,,
18296,Emerald City,https://ausstage.edu.au/pages/event/18296,1988,16/11/1988,18/12/1988,673,Perry Street Theater,New York,O/S,United States of America,40.735872,-74.002481,Theatre - Spoken Word,"Comedy, Drama",The New York Theatre Workshop,,12,2,Emerald City,,,
18416,Emerald City,https://ausstage.edu.au/pages/event/18416,1990,16/3/1990,15/4/1990,3453,Orange County Performing Arts Center Main and Second Stage,Costa Mesa,O/S,United States of America,33.691951,-117.882994,Theatre - Spoken Word,Drama,South Coast Repertory,,14,3,Emerald City,,,
18473,Always,https://ausstage.edu.au/pages/event/18473,1997,20/5/1997,26/7/1997,3459,Victoria Palace Theatre,London,O/S,England,51.496641,-0.142474,Music Theatre,"Musical, Musical Biography","Always Company UK, Cher International",,17,14,,,,
18892,The Beloved Vagabond,https://ausstage.edu.au/pages/event/18892,1927,1/9/1927,22/10/1927,3504,Duke of York's Theatre,London,O/S,England,51.510191,-0.127083,Music Theatre,Musical,B J Simmons & Co Ltd,,12,6,The Beloved Vagabond,,,
18893,The Beloved Vagabond,https://ausstage.edu.au/pages/event/18893,1927,24/10/1927,3/12/1927,3026,New Theatre,London,O/S,England,51.511111,-0.127222,Music Theatre,Musical,B J Simmons & Co Ltd,,13,3,The Beloved Vagabond,,,
18897,Puppetry of the Penis,https://ausstage.edu.au/pages/event/18897,2001,25/9/2001,3/11/2001,3506,John Houseman Theater,New York,O/S,United States of America,40.758199,-73.992107,Other,Comedy,Johnson Temple Productions,,8,1,Puppetry of the Penis,,,
18899,Prodigal,https://ausstage.edu.au/pages/event/18899,2002,26/2/2002,31/3/2002,3508,St Peters,New York,O/S,United States of America,40.75847,-73.970934,Music Theatre,Musical,York Theater Company,Homosexuality,11,2,Prodigal Son,,,
18900,Cloudstreet,https://ausstage.edu.au/pages/event/18900,2001,2/10/2001,7/10/2001,3509,Harvey Lichtenstein Theater,Fort Greene,O/S,United States of America,40.68828,-73.979001,Theatre - Spoken Word,"Comedy, Drama, Family","Black Swan Theatre Company, Company B Belvoir, Brooklyn Academy of Music, Australia Council for the Arts, The Australia International Cultural Council",,26,17,Cloudstreet,,,
18902,Birdbrain,https://ausstage.edu.au/pages/event/18902,2001,9/10/2001,14/10/2001,3510,The Joyce Theater,New York,O/S,United States of America,40.742772,-74.000559,Dance,"Artist(s) with disability, Contemporary","Australian Dance Theatre, Brooklyn Academy of Music",,2,2,Birdbrain,,,
18981,Crumpled and Corrupted 2,https://ausstage.edu.au/pages/event/18981,2001,10/10/2001,13/10/2001,3509,Harvey Lichtenstein Theater,Fort Greene,O/S,United States of America,40.68828,-73.979001,Dance,Contemporary,"Chunky Move Dance Company, Brooklyn Academy of Music, Australia Council for the Arts, The Australia International Cultural Council",,16,17,Crumpled,,,
18982,Corroboree,https://ausstage.edu.au/pages/event/18982,2001,24/10/2001,27/10/2001,3509,Harvey Lichtenstein Theater,Fort Greene,O/S,United States of America,40.68828,-73.979001,Dance,"Aboriginal and Torres Strait Islander Created, Aboriginal and Torres Strait Islander Produced, Contemporary, Indigenous","Bangarra Dance Theatre, Brooklyn Academy of Music, Australia Council for the Arts, The Australia International Cultural Council",Australian National Identity,21,14,Corroboree,,,
19057,The Theft of Sita,https://ausstage.edu.au/pages/event/19057,2001,17/10/2001,21/10/2001,3509,Harvey Lichtenstein Theater,Fort Greene,O/S,United States of America,40.68828,-73.979001,Other,"Music Theatre, Puppetry","Performing Lines Ltd, Brooklyn Academy of Music, Australia Council for the Arts, The Australia International Cultural Council, Confederation of Australian International Arts Festivals Inc",,9,9,The Theft of Sita,,,
19210,Bad Boy Johnny and the Prophets of Doom,https://ausstage.edu.au/pages/event/19210,1994,1994-01,5/2/1994,3541,Pentecostal Union Chapel,Islington,O/S,England,51.544772,-0.102573,Music Theatre,"Musical, Rock Opera",,Religion,3,2,Bad Boy Johnny and the Prophets of Doom,,,
19256,Emerald City,https://ausstage.edu.au/pages/event/19256,1987,30/12/1987,7/2/1988,3557,Toronto Free Theatre,Toronto,O/S,Canada,43.650678,-79.363901,Theatre - Spoken Word,Drama,Toronto Free Theatre CentreStage Company,,10,7,Emerald City,,,
19258,Emerald City,https://ausstage.edu.au/pages/event/19258,1990,1/11/1990,8/12/1990,3558,Burgess Theatre,Menlo Park,O/S,United States of America,37.453542,-122.175681,Theatre - Spoken Word,"Comedy, Drama",TheatreWorks,,12,4,Emerald City,,,
19259,Up for Grabs,https://ausstage.edu.au/pages/event/19259,2002,9/5/2002,13/7/2002,13446,Wyndham's Theatre,London,O/S,England,51.511052,-0.128221,Theatre - Spoken Word,Drama,"Sonia Friedman Productions, Theatre Royal Bath Productions",,14,5,Up for Grabs,,,
19292,The Shifting Heart,https://ausstage.edu.au/pages/event/19292,1959,14/9/1959,1959,3504,Duke of York's Theatre,London,O/S,England,51.510191,-0.127083,Theatre - Spoken Word,Drama,"The Australian Elizabethan Theatre Trust, The St. James Players",Racism,14,6,The Shifting Heart,,,
19296,The Shifting Heart,https://ausstage.edu.au/pages/event/19296,1959,31/8/1959,,3031,The Golders Green Hippodrome,Barnet,O/S,England,51.571709,-0.193398,Theatre - Spoken Word,Drama,"The Australian Elizabethan Theatre Trust, The St. James Players",Racism,14,0,The Shifting Heart,,,
19299,The Shifting Heart,https://ausstage.edu.au/pages/event/19299,1962,1962,,3561,St Andrew's Hall,Auckland,O/S,New Zealand,-36.850291,174.772715,Theatre - Spoken Word,Drama,"Grafton Theatre Inc., Auckland Festival Society Inc.",Racism,12,0,The Shifting Heart,,,
19302,Frenzy,https://ausstage.edu.au/pages/event/19302,1952,1952,,3562,St Martin's Theatre,Camden,O/S,England,51.512792,-0.1277,Theatre - Spoken Word,Drama,"Sherek Players Ltd., The Arts Council of Great Britain",,16,1,,,,
19303,"To Dorothy, a Son",https://ausstage.edu.au/pages/event/19303,1952,1952,,3564,Garrick Theatre,Westminster,O/S,England,51.510098,-0.128038,Theatre - Spoken Word,"Comedy, Farce",Jack De Leon Ltd.,,13,1,"To Dorothy, a Son",,,
19388,Our Country's Good,https://ausstage.edu.au/pages/event/19388,2001,15/5/2001,18/5/2001,3577,Guildhall School of Music and Drama,Barbican,O/S,England,51.519782,-0.091922,Theatre - Spoken Word,"Drama, Historical",Guildhall School of Music and Drama,,19,0,"Our Country's Good, The Playmaker",,,
19389,Our Country's Good,https://ausstage.edu.au/pages/event/19389,1998,2/9/1998,5/9/1998,3578,"Theatre Royal, Bath",Bath,O/S,England,51.382046,-2.362661,Theatre - Spoken Word,"Drama, Historical","Out of Joint Theatre Company, Young Vic Theatre",,18,0,"Our Country's Good, The Playmaker",,,
19391,Our Country's Good,https://ausstage.edu.au/pages/event/19391,1998,10/9/1998,,3579,Young Vic Theatre,Bankside,O/S,England,51.503144,-0.107511,Theatre - Spoken Word,"Drama, Historical","Out of Joint Theatre Company, Young Vic Theatre",,18,0,"Our Country's Good, The Playmaker",,,
19393,Our Country's Good,https://ausstage.edu.au/pages/event/19393,1998,3/11/1998,7/11/1998,3580,Everyman Theatre,Liverpool,O/S,England,53.403051,-2.969385,Theatre - Spoken Word,"Drama, Historical","Out of Joint Theatre Company, Young Vic Theatre",,18,0,"Our Country's Good, The Playmaker",,,
19395,Our Country's Good,https://ausstage.edu.au/pages/event/19395,1998,10/11/1998,14/11/1998,3581,The Oxford Playhouse,Oxford,O/S,England,51.75491,-1.260858,Theatre - Spoken Word,"Drama, Historical","Out of Joint Theatre Company, Young Vic Theatre",,18,0,"Our Country's Good, The Playmaker",,,
19397,Our Country's Good,https://ausstage.edu.au/pages/event/19397,1998,17/11/1998,21/11/1998,3583,West Yorkshire Playhouse,Leeds,O/S,England,53.798042,-1.534456,Theatre - Spoken Word,"Drama, Historical","Out of Joint Theatre Company, Young Vic Theatre",,18,0,"Our Country's Good, The Playmaker",,,
19399,Our Country's Good,https://ausstage.edu.au/pages/event/19399,1998,24/11/1998,28/11/1998,3584,"Theatre Royal, Bury Saint Edmunds",Bury Saint Edmunds,O/S,England,52.24064,0.717143,Theatre - Spoken Word,"Drama, Historical","Out of Joint Theatre Company, Young Vic Theatre",,18,0,"Our Country's Good, The Playmaker",,,
19403,Our Country's Good,https://ausstage.edu.au/pages/event/19403,1998,1/12/1998,5/12/1998,3585,Blackpool Grand Theatre,Blackpool,O/S,England,53.817293,-3.053685,Theatre - Spoken Word,"Drama, Historical","Out of Joint Theatre Company, Young Vic Theatre",,18,0,"Our Country's Good, The Playmaker",,,
19405,Our Country's Good,https://ausstage.edu.au/pages/event/19405,1998,7/12/1998,9/12/1998,3586,Devonshire Park Theatre,Eastbourne,O/S,England,50.763219,0.285191,Theatre - Spoken Word,"Drama, Historical","Out of Joint Theatre Company, Young Vic Theatre",,18,0,"Our Country's Good, The Playmaker",,,
19491,Our Country's Good,https://ausstage.edu.au/pages/event/19491,1992,15/2/1992,22/2/1992,3595,Tower Theatre,Islington,O/S,England,51.544268,-0.098725,Theatre - Spoken Word,"Drama, Historical",Tavistock Repertory Company,,21,0,"Our Country's Good, The Playmaker",,,
19492,Our Country's Good,https://ausstage.edu.au/pages/event/19492,1999,15/6/1999,19/6/1999,3596,Richmond Theatre,Richmond,O/S,England,51.46212,-0.303866,Theatre - Spoken Word,"Drama, Historical",Out of Joint Theatre Company,,3,0,"Our Country's Good, The Playmaker",,,
19493,Our Country's Good,https://ausstage.edu.au/pages/event/19493,1995,14/9/1995,7/10/1995,3082,Royal Lyceum Theatre,Edinburgh,O/S,Scotland,55.946856,-3.204413,Theatre - Spoken Word,"Drama, Historical",Royal Lyceum Theatre Company,,15,4,"Our Country's Good, The Playmaker",,,
19497,Our Country's Good,https://ausstage.edu.au/pages/event/19497,1995,22/9/1995,14/10/1995,3599,Emlyn Williams Theatre,Clwyd,O/S,Wales,53.178943,-3.136781,Theatre - Spoken Word,"Drama, Historical",Theatr Clwyd Company,,15,0,"Our Country's Good, The Playmaker",,,
19501,Our Country's Good,https://ausstage.edu.au/pages/event/19501,1991,5/4/1991,27/4/1991,3601,Library Theatre,Manchester,O/S,England,53.477835,-2.244613,Theatre - Spoken Word,"Drama, Historical",Library Theatre Company,,16,0,"Our Country's Good, The Playmaker",,,
19516,Our Country's Good,https://ausstage.edu.au/pages/event/19516,1989,1/7/1989,,3363,The Court Theatre (1905-2023),Christchurch,O/S,New Zealand,-43.531124,172.628826,Theatre - Spoken Word,"Drama, Historical","Court Theatre Christchurch, New Zealand Army, QANTAS",,22,0,"Our Country's Good, The Playmaker",,,
19520,Our Country's Good,https://ausstage.edu.au/pages/event/19520,1989,29/11/1989,,3564,Garrick Theatre,Westminster,O/S,England,51.510098,-0.128038,Theatre - Spoken Word,,"Diana Bliss, Frank and Woji Gero, The Royal Court Theatre",,19,0,"Our Country's Good, The Playmaker",,,
19523,Our Country's Good,https://ausstage.edu.au/pages/event/19523,1988,1/9/1988,8/10/1988,3408,Royal Court Theatre,London,O/S,England,51.492574,-0.156634,Theatre - Spoken Word,"Drama, Historical",The Royal Court Theatre,,17,0,"Our Country's Good, The Playmaker",,,
19526,The Recruiting Officer,https://ausstage.edu.au/pages/event/19526,1988,21/7/1988,8/10/1988,3408,Royal Court Theatre,London,O/S,England,51.492574,-0.156634,Theatre - Spoken Word,"Comedy, Drama, Military",The Royal Court Theatre,,14,0,The Recruiting Officer,,,
19617,Our Country's Good,https://ausstage.edu.au/pages/event/19617,1989,8/8/1989,30/9/1989,3408,Royal Court Theatre,London,O/S,England,51.492574,-0.156634,Theatre - Spoken Word,"Drama, Historical",The Royal Court Theatre,,16,1,"Our Country's Good, The Playmaker",,,
19619,The Recruiting Officer,https://ausstage.edu.au/pages/event/19619,1989,3/8/1989,30/9/1989,3408,Royal Court Theatre,London,O/S,England,51.492574,-0.156634,Theatre - Spoken Word,"Comedy, Drama, Military",The Royal Court Theatre,,15,1,The Recruiting Officer,,,
19622,The Recruiting Officer,https://ausstage.edu.au/pages/event/19622,1989,9/11/1989,11/11/1989,3619,Warwick Arts Centre,Coventry,O/S,England,52.379561,-1.56097,Theatre - Spoken Word,"Comedy, Drama, Military","The Royal Court Theatre, Diana Bliss",,15,0,The Recruiting Officer,,,
19624,Our Country's Good,https://ausstage.edu.au/pages/event/19624,1989,7/11/1989,11/11/1989,3619,Warwick Arts Centre,Coventry,O/S,England,52.379561,-1.56097,Theatre - Spoken Word,"Drama, Historical","The Royal Court Theatre, Diana Bliss",,16,0,"Our Country's Good, The Playmaker",,,
19627,Our Country's Good,https://ausstage.edu.au/pages/event/19627,1989,13/11/1989,18/11/1989,3585,Blackpool Grand Theatre,Blackpool,O/S,England,53.817293,-3.053685,Theatre - Spoken Word,"Drama, Historical","The Royal Court Theatre, Blackpool Grand Theatre Trust Ltd., Diana Bliss",,16,0,"Our Country's Good, The Playmaker",,,
19630,The Recruiting Officer,https://ausstage.edu.au/pages/event/19630,1989,16/11/1989,18/11/1989,3585,Blackpool Grand Theatre,Blackpool,O/S,England,53.817293,-3.053685,Theatre - Spoken Word,"Comedy, Drama, Military","The Royal Court Theatre, Blackpool Grand Theatre Trust Ltd., Diana Bliss",,15,0,The Recruiting Officer,,,
19631,The Recruiting Officer,https://ausstage.edu.au/pages/event/19631,1989,21/11/1989,25/11/1989,3578,"Theatre Royal, Bath",Bath,O/S,England,51.382046,-2.362661,Theatre - Spoken Word,"Comedy, Drama, Military","The Royal Court Theatre, Diana Bliss",,15,0,The Recruiting Officer,,,
19632,Our Country's Good,https://ausstage.edu.au/pages/event/19632,1989,20/11/1989,25/11/1989,3578,"Theatre Royal, Bath",Bath,O/S,England,51.382046,-2.362661,Theatre - Spoken Word,"Drama, Historical","The Royal Court Theatre, Diana Bliss",,16,0,"Our Country's Good, The Playmaker",,,
19635,Our Country's Good,https://ausstage.edu.au/pages/event/19635,1990,21/4/1990,17/6/1990,3620,Bailiwick Repertory Theatre,Chicago,O/S,United States of America,41.939747,-87.660247,Theatre - Spoken Word,"Drama, Historical",Remains Theatre Ensemble,,18,0,"Our Country's Good, The Playmaker",,,
19731,Our Country's Good,https://ausstage.edu.au/pages/event/19731,1991,19/4/1991,8/6/1991,3638,Nederlander Theatre,Broadway,O/S,United States of America,40.755666,-73.98818,Theatre - Spoken Word,"Drama, Historical","Hartford Stage Company, Diana Bliss, Frank and Woji Gero, The Broadway Alliance",,19,5,"Our Country's Good, The Playmaker",,,
19732,Our Country's Good,https://ausstage.edu.au/pages/event/19732,1989,3/9/1989,29/10/1989,3639,The Mark Taper Forum,Los Angeles,O/S,United States of America,34.057797,-118.247738,Theatre - Spoken Word,"Drama, Historical","Center Theatre Group, The Royal Court Theatre",,19,9,"Our Country's Good, The Playmaker",,,
19733,Our Country's Good,https://ausstage.edu.au/pages/event/19733,1990,5/9/1990,5/10/1990,3640,"Webster University, Loretto-Hilton Center",Webster Groves,O/S,United States of America,38.588646,-90.344549,Theatre - Spoken Word,"Drama, Historical",The Repertory Theatre of St. Louis,,17,3,"Our Country's Good, The Playmaker",,,
19968,The Merchant of Venice,https://ausstage.edu.au/pages/event/19968,1957,11/4/1957,18/4/1957,3370,The Old Vic Theatre,London,O/S,England,51.502249,-0.109663,Theatre - Spoken Word,"Black Comedy, Drama, Elizabethan","The Old Vic Company, Old Vic Trust Limited, The Arts Council of Great Britain",,22,0,The Merchant of Venice,,,
20095,Salome,https://ausstage.edu.au/pages/event/20095,2002,11/11/2002,12/11/2002,3683,Shanghai Grand Theatre,Huangpu,O/S,China,31.230367,121.47056,Dance,,"Sydney Dance Company, Australia Council for the Arts, The Australia International Cultural Council",,4,0,Salome,,,
20096,Corroboree,https://ausstage.edu.au/pages/event/20096,2002,23/10/2002,24/10/2002,3684,21st Century Theatre,Beijing,O/S,China,39.950444,116.466794,Dance,"Aboriginal and Torres Strait Islander Created, Aboriginal and Torres Strait Islander Produced, Indigenous",Bangarra Dance Theatre,Indigenous Australia,6,0,Corroboree,,,
20098,Corroboree,https://ausstage.edu.au/pages/event/20098,2002,1/11/2002,2/11/2002,3685,Hong Kong City Concert Hall,Central,O/S,China,22.28261,114.161746,Dance,"Aboriginal and Torres Strait Islander Created, Aboriginal and Torres Strait Islander Produced, Indigenous",Bangarra Dance Theatre,Indigenous Australia,6,0,Corroboree,,,
20099,Corroboree,https://ausstage.edu.au/pages/event/20099,2002,5/11/2002,5/11/2002,3686,Friendship Theatre,Guang Zhou,O/S,China,23.147803,113.252515,Dance,"Aboriginal and Torres Strait Islander Created, Aboriginal and Torres Strait Islander Produced, Indigenous",Bangarra Dance Theatre,Indigenous Australia,6,0,Corroboree,,,
20100,All of Me,https://ausstage.edu.au/pages/event/20100,2002,13/11/2002,15/11/2002,3687,Shanghai Dramatic Arts Centre,Xuhui,O/S,China,31.214013,121.441586,Other,"Acrobatics, Physical Theatre","Legs on the Wall, Australia Council for the Arts, The Australia International Cultural Council",Family,4,0,All of Me,,,
20179,Our Country's Good,https://ausstage.edu.au/pages/event/20179,1991,25/4/1991,13/6/1991,3698,Berkeley Repertory Theatre,Berkeley,O/S,United States of America,37.871295,-122.269316,Theatre - Spoken Word,"Drama, Historical",Berkeley Repertory Theatre,,16,0,"Our Country's Good, The Playmaker",,,
20181,Our Country's Good,https://ausstage.edu.au/pages/event/20181,1990,2/10/1990,3/11/1990,3699,John W Huntington Theatre,Hartford,O/S,United States of America,41.7688,-72.674431,Theatre - Spoken Word,"Drama, Historical",Hartford Stage Company,,16,0,"Our Country's Good, The Playmaker",,,
20182,Our Country's Good,https://ausstage.edu.au/pages/event/20182,1990,15/12/1990,9/2/1991,3700,Intermediate Theatre,Portland,O/S,United States of America,45.516828,-122.681095,Theatre - Spoken Word,"Drama, Historical",Oregon Shakespeare Festival Company,,16,0,"Our Country's Good, The Playmaker",,,
20185,Our Country's Good,https://ausstage.edu.au/pages/event/20185,1993,11/8/1993,28/8/1993,3701,Briggs Opera House,White River Junction,O/S,United States of America,43.648492,-72.318531,Theatre - Spoken Word,"Drama, Historical","White River Theatre Festival Company, River City Arts",,16,0,"Our Country's Good, The Playmaker",,,
20285,Our Country's Good,https://ausstage.edu.au/pages/event/20285,1993,19/1/1993,14/2/1993,3716,Cincinnati Playhouse in the Park,Cincinnati,O/S,United States of America,39.111468,-84.497852,Theatre - Spoken Word,"Drama, Historical",Cincinnati Playhouse,,17,0,"Our Country's Good, The Playmaker",,,
20287,Our Country's Good,https://ausstage.edu.au/pages/event/20287,1992,16/10/1992,22/11/1992,3453,Orange County Performing Arts Center Main and Second Stage,Costa Mesa,O/S,United States of America,33.691951,-117.882994,Theatre - Spoken Word,"Drama, Historical",South Coast Repertory,,16,0,"Our Country's Good, The Playmaker",,,
21593,The Ghost Wife,https://ausstage.edu.au/pages/event/21593,2002,14/11/2002,23/11/2002,3852,The Pit Theatre,Barbican,O/S,England,51.520083,-0.093288,Music Theatre,Opera,Oz Opera,,10,1,The Ghost Wife,,,
21736,Honour,https://ausstage.edu.au/pages/event/21736,2003,21/2/2003,13/5/2003,3865,Cottesloe Theatre,,O/S,England,51.507193,-0.114701,Theatre - Spoken Word,,National Theatre of Great Britain,,10,2,Honour,,,
23638,Colour Blind,https://ausstage.edu.au/pages/event/23638,1930,15/10/1930,24/1/1931,3504,Duke of York's Theatre,London,O/S,England,51.510191,-0.127083,Music Theatre,Musical,Willhut Ltd,,10,2,,,,
23639,The Toymaker of Nuremberg,https://ausstage.edu.au/pages/event/23639,1930,20/12/1930,17/1/1931,3991,Kingsway Theatre,Kings Cross Centre,O/S,England,51.527019,-0.118279,Music Theatre,,,,20,2,,,,
24787,Dance of Death,https://ausstage.edu.au/pages/event/24787,2000,15/3/2000,22/3/2000,4087,Theatre X (Cai),Tokyo,O/S,Japan,35.693887,139.79269,Theatre - Spoken Word,"Comedy, Drama","Bell Shakespeare Company, State Theatre Company of South Australia",Marriage,10,0,Dance of Death,,,
24788,Dance of Death,https://ausstage.edu.au/pages/event/24788,2000,24/3/2000,26/3/2000,4088,"Aichi, Geijutsu Theatre",Higashi-ku,O/S,Japan,35.180188,136.906565,Theatre - Spoken Word,"Comedy, Drama","Bell Shakespeare Company, State Theatre Company of South Australia",Marriage,10,0,Dance of Death,,,
25031,The Green Bay Tree,https://ausstage.edu.au/pages/event/25031,1954,13/7/1954,18/7/1954,4105,Q Theatre,Brentford,O/S,England,51.489181,-0.286962,Theatre - Spoken Word,Drama,Q Theatre,,8,0,,,,
25709,Corroboree,https://ausstage.edu.au/pages/event/25709,2001,2/10/2001,,4160,McCarter Theatre,Princeton,O/S,United States of America,40.343486,-74.65991,Dance,"Aboriginal and Torres Strait Islander Created, Aboriginal and Torres Strait Islander Produced, Dance Theatre, Indigenous","Bangarra Dance Theatre, ICM Artists Ltd",Indigenous Australia,22,0,Corroboree,,,
25715,Corroboree,https://ausstage.edu.au/pages/event/25715,2001,4/10/2001,,4161,Shubert Performing Arts Center,Newhaven,O/S,United States of America,41.306545,-72.92912,Dance,"Aboriginal and Torres Strait Islander Created, Aboriginal and Torres Strait Islander Produced, Dance Theatre, Indigenous","Bangarra Dance Theatre, ICM Artists Ltd",Indigenous Australia,22,0,Corroboree,,,
25771,Corroboree,https://ausstage.edu.au/pages/event/25771,2001,5/10/2001,7/10/2001,4165,New Jersey Performing Arts Center,Newark,O/S,United States of America,40.739843,-74.167779,Dance,"Aboriginal and Torres Strait Islander Created, Aboriginal and Torres Strait Islander Produced, Dance Theatre, Indigenous","Bangarra Dance Theatre, ICM Artists Ltd",Indigenous Australia,22,0,Corroboree,,,
25778,Corroboree,https://ausstage.edu.au/pages/event/25778,2001,9/10/2001,9/10/2001,4166,"University of North Carolina, Sarah Graham Kenan Auditorium",Wilmington,O/S,United States of America,34.227425,-77.879179,Dance,"Aboriginal and Torres Strait Islander Created, Aboriginal and Torres Strait Islander Produced, Dance Theatre, Indigenous","Bangarra Dance Theatre, ICM Artists Ltd",Indigenous Australia,5,0,Corroboree,,,
25784,Corroboree,https://ausstage.edu.au/pages/event/25784,2001,10/10/2001,10/10/2001,4167,The Peace Center for the Performing Arts,Greenville,O/S,United States of America,34.847176,-82.401058,Dance,"Aboriginal and Torres Strait Islander Created, Aboriginal and Torres Strait Islander Produced, Dance Theatre, Indigenous","Bangarra Dance Theatre, ICM Artists Ltd",Indigenous Australia,5,0,Corroboree,,,
25787,Corroboree,https://ausstage.edu.au/pages/event/25787,2001,14/10/2001,14/10/2001,4168,Fabulous Fox Theatre,Georgia,O/S,United States of America,33.772635,-84.38558,Dance,"Aboriginal and Torres Strait Islander Created, Aboriginal and Torres Strait Islander Produced, Dance Theatre, Indigenous","Bangarra Dance Theatre, ICM Artists Ltd",Indigenous Australia,5,0,Corroboree,,,
25790,Corroboree,https://ausstage.edu.au/pages/event/25790,2001,16/10/2001,17/10/2001,4169,Alice Jepson Theatre,Westhampton Gate,O/S,United States of America,37.573902,-77.542685,Dance,"Aboriginal and Torres Strait Islander Created, Aboriginal and Torres Strait Islander Produced, Dance Theatre, Indigenous","Bangarra Dance Theatre, ICM Artists Ltd",Indigenous Australia,5,0,Corroboree,,,
25794,Corroboree,https://ausstage.edu.au/pages/event/25794,2001,19/10/2001,21/10/2001,4171,The John F Kennedy Center for the Performing Arts,Washington DC,O/S,United States of America,38.896054,-77.054852,Dance,"Aboriginal and Torres Strait Islander Created, Aboriginal and Torres Strait Islander Produced, Dance Theatre, Indigenous","Bangarra Dance Theatre, ICM Artists Ltd",Indigenous Australia,5,0,Corroboree,,,
25797,Corroboree,https://ausstage.edu.au/pages/event/25797,2001,30/10/2001,30/10/2001,4173,University of North Carolina Greensboro,Greensboro,O/S,United States of America,36.068076,-79.809639,Dance,"Aboriginal and Torres Strait Islander Created, Aboriginal and Torres Strait Islander Produced, Dance Theatre, Indigenous","Bangarra Dance Theatre, ICM Artists Ltd",Indigenous Australia,5,0,Corroboree,,,
25799,Corroboree,https://ausstage.edu.au/pages/event/25799,2001,2/11/2001,2/11/2001,4174,Clowes Memorial Hall,Indianoplis,O/S,United States of America,39.844443,-86.165545,Dance,"Aboriginal and Torres Strait Islander Created, Aboriginal and Torres Strait Islander Produced, Dance Theatre, Indigenous","Bangarra Dance Theatre, ICM Artists Ltd",Indigenous Australia,5,0,Corroboree,,,
25800,Corroboree,https://ausstage.edu.au/pages/event/25800,2001,3/11/2001,3/11/2001,4175,Galvin Fine Arts Centre,Davenport,O/S,United States of America,41.540562,-90.582318,Dance,"Aboriginal and Torres Strait Islander Created, Aboriginal and Torres Strait Islander Produced, Dance Theatre, Indigenous","Bangarra Dance Theatre, ICM Artists Ltd",Indigenous Australia,5,0,Corroboree,,,
25801,Corroboree,https://ausstage.edu.au/pages/event/25801,2001,6/11/2001,7/11/2001,4176,Scottsdale Center For the Arts,Arizona,O/S,United States of America,33.491326,-111.922455,Dance,"Aboriginal and Torres Strait Islander Created, Aboriginal and Torres Strait Islander Produced, Dance Theatre, Indigenous","Bangarra Dance Theatre, ICM Artists Ltd",Indigenous Australia,5,0,Corroboree,,,
25802,Corroboree,https://ausstage.edu.au/pages/event/25802,2001,8/11/2001,8/11/2001,4177,Centennial Hall,Tucson,O/S,United States of America,32.231489,-110.955434,Dance,"Aboriginal and Torres Strait Islander Created, Aboriginal and Torres Strait Islander Produced, Dance Theatre, Indigenous","Bangarra Dance Theatre, ICM Artists Ltd",Indigenous Australia,5,0,Corroboree,,,
25803,Corroboree,https://ausstage.edu.au/pages/event/25803,2001,9/11/2001,9/11/2001,4178,Artemus W Ham Concert Hall,Las Vegas,O/S,United States of America,36.105471,-115.138724,Dance,"Aboriginal and Torres Strait Islander Created, Aboriginal and Torres Strait Islander Produced, Dance Theatre, Indigenous","Bangarra Dance Theatre, ICM Artists Ltd",Indigenous Australia,4,0,Corroboree,,,
25804,Corroboree,https://ausstage.edu.au/pages/event/25804,2001,10/11/2001,10/11/2001,4179,Marsee Auditorium,Torrence,O/S,United States of America,33.884462,-118.326731,Dance,"Aboriginal and Torres Strait Islander Created, Aboriginal and Torres Strait Islander Produced, Dance Theatre, Indigenous","Bangarra Dance Theatre, ICM Artists Ltd",Indigenous Australia,5,0,Corroboree,,,
25840,Corroboree,https://ausstage.edu.au/pages/event/25840,2002,13/12/2002,14/12/2002,4182,Grimaldi Forum,Monaco,O/S,Monaco,43.743753,7.43118,Dance,"Aboriginal and Torres Strait Islander Created, Aboriginal and Torres Strait Islander Produced, Dance Theatre, Indigenous",Bangarra Dance Theatre,Indigenous Australia,21,0,Corroboree,,,
26202,The Dreaming,https://ausstage.edu.au/pages/event/26202,1999,24/6/1999,24/6/1999,4218,Barnet Big Top,Hendon,O/S,England,51.601455,-0.223576,Dance,"Aboriginal and Torres Strait Islander Created, Aboriginal and Torres Strait Islander Produced, Dance Theatre, Indigenous","Bangarra Dance Theatre, UK Arts International, Australia Council for the Arts, NSW Ministry for the Arts",Indigenous Australia,14,0,The Dreaming,,,
26207,The Dreaming,https://ausstage.edu.au/pages/event/26207,1999,16/7/1999,16/7/1999,4219,Derngate Theatre,Northampton,O/S,England,52.236271,-0.894224,Dance,"Aboriginal and Torres Strait Islander Created, Aboriginal and Torres Strait Islander Produced, Dance Theatre, Indigenous","Bangarra Dance Theatre, UK Arts International, Australia Council for the Arts, NSW Ministry for the Arts",Indigenous Australia,14,0,The Dreaming,,,
26216,The Dreaming,https://ausstage.edu.au/pages/event/26216,1999,2/7/1999,3/7/1999,3044,The Marlowe Theatre (1984-2009),Canterbury,O/S,England,51.281083,1.078691,Dance,"Aboriginal and Torres Strait Islander Created, Aboriginal and Torres Strait Islander Produced, Dance Theatre, Indigenous","Bangarra Dance Theatre, UK Arts International, Australia Council for the Arts, NSW Ministry for the Arts",Indigenous Australia,14,0,The Dreaming,,,
26224,The Dreaming,https://ausstage.edu.au/pages/event/26224,1999,28/7/1999,29/7/1999,4222,Queen Elizabeth Hall,London,O/S,England,51.506508,-0.116711,Dance,"Aboriginal and Torres Strait Islander Created, Aboriginal and Torres Strait Islander Produced, Dance Theatre, Indigenous","Bangarra Dance Theatre, UK Arts International, Australia Council for the Arts, NSW Ministry for the Arts",Indigenous Australia,14,0,The Dreaming,,,
26230,Fish,https://ausstage.edu.au/pages/event/26230,1997,12/8/1997,14/8/1997,4223,King's Theatre,Edinburgh,O/S,Scotland,55.941894,-3.203073,Dance,"Aboriginal and Torres Strait Islander Created, Aboriginal and Torres Strait Islander Produced, Dance Theatre, Indigenous","Bangarra Dance Theatre, Edinburgh International Festival",Indigenous Australia,13,0,Fish,,,
26357,Jesus Christ Superstar,https://ausstage.edu.au/pages/event/26357,1972,9/8/1972,1980,4235,Palace Theatre,Westminster,O/S,England,51.513209,-0.129447,Music Theatre,Musical,Robert Stigwood,Religion,15,0,Jesus Christ Superstar,,,
26406,The Sentimental Bloke,https://ausstage.edu.au/pages/event/26406,1962,3/11/1962,1962,3238,His Majesty's Theatre,Auckland,O/S,New Zealand,-36.847928,174.765134,Music Theatre,Musical Biography,J C Williamson Theatres Limited (1943-1976),Australian National Identity,35,2,The Sentimental Bloke,,,
26423,"Dame Edna: the Royal Tour  The Show that Listens""""",https://ausstage.edu.au/pages/event/26423,1999,15/9/1999,2/7/2000,4243,Booth Theatre,New York,O/S,United States of America,40.758612,-73.986718,Theatre - Spoken Word,"Comedy, One Person Show",,,11,1,,,,
26527,Prisoner Cell Block H - the Musical,https://ausstage.edu.au/pages/event/26527,1995,25/10/1995,13/1/1996,4254,Queen's Theatre,London,O/S,England,51.511816,-0.132662,Music Theatre,Musical,Helen Montagu Productions,,23,2,Prisoner Cell Block H - The Musical,,,
26531,Prisoner Cell Block H - the Musical,https://ausstage.edu.au/pages/event/26531,1996,27/5/1996,1/6/1996,4255,The Hexagon,Reading,O/S,England,51.453735,-0.97777,Music Theatre,Musical,"Helen Montagu Productions, Scenic Happenings",,21,0,Prisoner Cell Block H - The Musical,,,
26590,Shimada,https://ausstage.edu.au/pages/event/26590,1992,6/4/1992,25/4/1992,4262,Broadhurst Theatre,New York,O/S,United States of America,40.757937,-73.987688,Theatre - Spoken Word,,,,16,0,,,,
26790,Prisoner Cell Block H - the Musical,https://ausstage.edu.au/pages/event/26790,1996,1/7/1996,6/7/1996,4279,Edinburgh Festival Theatre,Edinburgh,O/S,Scotland,55.94665,-3.186322,Music Theatre,Musical,"Helen Montagu Productions, Scenic Happenings",,21,0,Prisoner Cell Block H - The Musical,,,
26920,A Spring Song,https://ausstage.edu.au/pages/event/26920,1964,28/9/1964,,4299,Mermaid Theatre,Blackfriars,O/S,England,51.511488,-0.101957,Theatre - Spoken Word,"Comedy, Drama",The Mermaid Theatre Trust,"Family, Relationships",10,0,A Spring Song,,,
26947,A Spring Song,https://ausstage.edu.au/pages/event/26947,1964,1964,,4279,Edinburgh Festival Theatre,Edinburgh,O/S,Scotland,55.94665,-3.186322,Theatre - Spoken Word,"Comedy, Drama",Oxford Theatre Group,"Family, Relationships",1,0,A Spring Song,,,
27220,Prisoner Cell Block H - the Musical,https://ausstage.edu.au/pages/event/27220,1997,11/3/1997,15/3/1997,4336,Hippodrome,Birmingham,O/S,England,52.474501,-1.897491,Music Theatre,Musical,"Scenic Happenings, Helen Montagu Productions, Well Bred Productions",,25,0,Prisoner Cell Block H - The Musical,,,
27280,Prisoner Cell Block H - the Musical,https://ausstage.edu.au/pages/event/27280,1997,17/3/1997,22/3/1997,3081,Lyceum Theatre,Sheffield,O/S,England,53.380513,-1.466748,Music Theatre,Musical,"Scenic Happenings, Helen Montagu Productions, Well Bred Productions",,25,0,Prisoner Cell Block H - The Musical,,,
27296,Prisoner Cell Block H - the Musical,https://ausstage.edu.au/pages/event/27296,1997,25/3/1997,29/3/1997,4343,The King's Theatre,Glasgow,O/S,Scotland,55.864983,-4.26871,Music Theatre,Musical,"Scenic Happenings, Helen Montagu Productions, Well Bred Productions",,25,0,Prisoner Cell Block H - The Musical,,,
27369,Prisoner Cell Block H - the Musical,https://ausstage.edu.au/pages/event/27369,1997,31/3/1997,5/4/1997,4351,"Theatre Royal, Brighton",Brighton,O/S,England,50.823334,-0.139568,Music Theatre,Musical,"Scenic Happenings, Helen Montagu Productions, Well Bred Productions",,25,0,Prisoner Cell Block H - The Musical,,,
27377,Prisoner Cell Block H - the Musical,https://ausstage.edu.au/pages/event/27377,1997,15/4/1997,19/4/1997,4353,His Majesty's Theatre,Aberdeen,O/S,Scotland,57.14792,-2.1047745,Music Theatre,Musical,"Scenic Happenings, Helen Montagu Productions, Well Bred Productions",,25,0,Prisoner Cell Block H - The Musical,,,
27378,Kookaburra,https://ausstage.edu.au/pages/event/27378,1959,26/11/1959,9/1/1960,4354,Princes Theatre,London,O/S,England,51.516019,-0.126005,Music Theatre,Musical,John Forbes-Sempill Productions Ltd.,,19,4,,,,
27408,Prisoner Cell Block H - the Musical,https://ausstage.edu.au/pages/event/27408,1997,22/4/1997,26/4/1997,4358,Empire,Liverpool,O/S,England,53.408802,-2.97857,Music Theatre,Musical,"Scenic Happenings, Helen Montagu Productions, Well Bred Productions",,25,0,Prisoner Cell Block H - The Musical,,,
27411,Kookaburra,https://ausstage.edu.au/pages/event/27411,1959,19/10/1959,,15692,Bournemouth Pavilion,Bournemouth,O/S,England,50.7175,-1.8751,Music Theatre,Musical,John Forbes-Sempill Productions Ltd.,,3,2,,,,
27422,Prisoner Cell Block H - the Musical,https://ausstage.edu.au/pages/event/27422,1997,29/4/1997,3/5/1997,4363,Wimbledon Theatre,Wimbledon,O/S,England,51.41928,-0.201373,Music Theatre,Musical,"Scenic Happenings, Helen Montagu Productions, Well Bred Productions",,25,0,Prisoner Cell Block H - The Musical,,,
27434,Prisoner Cell Block H - the Musical,https://ausstage.edu.au/pages/event/27434,1997,6/5/1997,10/5/1997,4279,Edinburgh Festival Theatre,Edinburgh,O/S,Scotland,55.94665,-3.186322,Music Theatre,Musical,"Scenic Happenings, Helen Montagu Productions, Well Bred Productions",,25,0,Prisoner Cell Block H - The Musical,,,
27560,Prisoner Cell Block H - the Musical,https://ausstage.edu.au/pages/event/27560,1997,13/5/1997,17/5/1997,4379,Alhambra Theatre,Bradford,O/S,England,53.791625,-1.75726,Music Theatre,Musical,"Scenic Happenings, Helen Montagu Productions, Well Bred Productions",,25,0,Prisoner Cell Block H - The Musical,,,
27643,Prisoner Cell Block H - the Musical,https://ausstage.edu.au/pages/event/27643,1997,20/5/1997,24/5/1997,4383,Apollo Theatre,Oxford,O/S,England,51.753869,-1.259877,Music Theatre,Musical,"Scenic Happenings, Helen Montagu Productions, Well Bred Productions",,25,0,Prisoner Cell Block H - The Musical,,,
27712,Wildstars,https://ausstage.edu.au/pages/event/27712,1980,23/8/1980,23/8/1980,3082,Royal Lyceum Theatre,Edinburgh,O/S,Scotland,55.946856,-3.204413,Dance,"Dance, Dance Theatre","Australian Dance Theatre, Australia Council for the Arts, The Government of South Australia, The Victorian Ministry for the Arts",,4,2,,,,
27959,Prisoner Cell Block H - the Musical,https://ausstage.edu.au/pages/event/27959,1997,28/5/1997,1/6/1997,4406,Opera House,Blackpool,O/S,England,53.8171,-3.0509,Music Theatre,Musical,"Scenic Happenings, Helen Montagu Productions, Well Bred Productions",,25,0,Prisoner Cell Block H - The Musical,,,
27963,Prisoner Cell Block H - the Musical,https://ausstage.edu.au/pages/event/27963,1997,3/6/1997,7/6/1997,4407,Palace Theatre,Manchester,O/S,England,53.474964,-2.241179,Music Theatre,Musical,"Scenic Happenings, Helen Montagu Productions, Well Bred Productions",,25,0,Prisoner Cell Block H - The Musical,,,
27967,No Room for Dreamers,https://ausstage.edu.au/pages/event/27967,1980,11/8/1980,16/8/1980,4409,Key Theatre,Peterborough,O/S,England,52.568636,-0.238673,Theatre - Spoken Word,"Biographical, Drama","Ensemble Theatre Pty Ltd, The Australian Elizabethan Theatre Trust, Paul Elliott, Mark Furness","Australian National Identity, Historical",18,2,No Room for Dreamers,,,
28028,Labyrinth / Broken Head / Flibbertigibbet / Transfigured Night,https://ausstage.edu.au/pages/event/28028,1982,15/6/1982,26/6/1982,13438,Sadler's Wells Theatre,London,O/S,England,51.529037,-0.106354,Dance,Dance Theatre,"Australian Dance Theatre, Visiting Arts Unit of Great Britain, Australia Council for the Arts, South Australian Department for Arts and Cultural Heritage (1980-1986), The Victorian Ministry for the Arts, BP Australia, Department of Foreign Affairs and Trade",,28,11,,,,
28032,Winter By Spring / Impromptu / Paradigm / Stars End,https://ausstage.edu.au/pages/event/28032,1982,16/6/1982,23/6/1982,13438,Sadler's Wells Theatre,London,O/S,England,51.529037,-0.106354,Dance,Dance Theatre,"Australian Dance Theatre, Visiting Arts Unit of Great Britain, Australia Council for the Arts, South Australian Department for Arts and Cultural Heritage (1980-1986), The Victorian Ministry for the Arts, BP Australia, Department of Foreign Affairs and Trade",,28,7,,,,
28040,While We Watched,https://ausstage.edu.au/pages/event/28040,1982,17/6/1982,25/6/1982,13438,Sadler's Wells Theatre,London,O/S,England,51.529037,-0.106354,Dance,Dance Theatre,"Australian Dance Theatre, Visiting Arts Unit of Great Britain, Australia Council for the Arts, South Australian Department for Arts and Cultural Heritage (1980-1986), The Victorian Ministry for the Arts, BP Australia, Department of Foreign Affairs and Trade",,20,8,While We Watched,,,
28081,The Boy From Oz,https://ausstage.edu.au/pages/event/28081,2003,16/9/2003,2004,4425,Imperial Theatre,New York,O/S,United States of America,40.758841,-73.987329,Music Theatre,"Musical, Musical Biography",,,21,10,The Boy from Oz,,,
28204,Reedy River,https://ausstage.edu.au/pages/event/28204,1954,19/12/1954,20/2/1955,4432,Unity Theatre,Euston,O/S,England,51.534964,-0.133129,Theatre - Spoken Word,"Folk, Musical",Unity Theatre Society,,24,0,Reedy River,,,
28440,Birdbrain,https://ausstage.edu.au/pages/event/28440,2001,17/7/2001,19/7/2001,4462,Black Box Theatre,Galway,O/S,Ireland,53.280251,-9.052391,Dance,"Artist(s) with disability, Dance Theatre, Multimedia","Australian Dance Theatre, Arts Victoria, Australia Council for the Arts",,2,0,Birdbrain,,,
28447,Birdbrain,https://ausstage.edu.au/pages/event/28447,2003,7/5/2003,8/5/2003,4222,Queen Elizabeth Hall,London,O/S,England,51.506508,-0.116711,Dance,"Artist(s) with disability, Dance Theatre, Multimedia","Australian Dance Theatre, Arts SA (1996-2016), Australia Council for the Arts, Department of Foreign Affairs and Trade, The Government of South Australia",,17,0,Birdbrain,,,
28454,Birdbrain,https://ausstage.edu.au/pages/event/28454,2003,2/5/2003,3/5/2003,4465,Snape Maltings Concert Hall,Saxmundham,O/S,England,52.163241,1.49754,Dance,"Artist(s) with disability, Dance Theatre, Multimedia","Australian Dance Theatre, Aldeburgh Music, Dance East, Arts Council England, Arts SA (1996-2016), Australia Council for the Arts, Department of Foreign Affairs and Trade",,17,0,Birdbrain,,,
28617,Two Feet,https://ausstage.edu.au/pages/event/28617,1994,25/2/1994,26/2/1994,4481,Wellington,Wellington,O/S,New Zealand,-41.28646,174.776236,Dance,"Dance, Dance Theatre",Meryl Tankard Australian Dance Theatre,Self-examination,4,0,Two Feet,,,
28640,Rooted,https://ausstage.edu.au/pages/event/28640,1973,5/3/1973,,3352,Hampstead Theatre,Swiss Cottage,O/S,England,51.542675,-0.173787,Theatre - Spoken Word,Satire,Hampstead Theatre,"Australian National Identity, Consumers",4,1,Rooted,,,
28754,Blame It On The Bossa Nova,https://ausstage.edu.au/pages/event/28754,1996,1/2/1996,17/2/1996,4490,Downstage Theatre @ Hannah Playhouse (1973 - 2013),Wellington,O/S,New Zealand,-41.293825,174.78368,Music Theatre,"Cabaret, Revue","The Lounge Lizards, Downstage Theatre Company (Wellington)",,6,2,,,,
28769,Power,https://ausstage.edu.au/pages/event/28769,1996,10/2/1996,17/2/1996,4492,Free Theatre,Christchurch,O/S,New Zealand,-43.531503,172.628161,Theatre - Spoken Word,Drama,Free Theatre,Power,2,0,,,,
28773,The Woman in Black,https://ausstage.edu.au/pages/event/28773,1996,9/2/1996,10/2/1996,4493,Centrepoint Theatre,Palmerston North,O/S,New Zealand,-40.359509,175.607337,Theatre - Spoken Word,"Drama, Thriller",Centrepoint Theatre (Palmerston North),Supernatural,7,1,The Woman in Black,,,
28871,Eugenia,https://ausstage.edu.au/pages/event/28871,1996,16/1/1996,17/2/1996,4504,Taki Rua Theatre [Depot Theatre] (1984-1997),Te Aro,O/S,New Zealand,-41.294617,174.782377,Theatre - Spoken Word,Drama,Taki Rua Productions,Social Issues,5,0,,,,
29677,Labyrinth / Impromptu / Flibbertigibbet / Transfigured Night,https://ausstage.edu.au/pages/event/29677,1980,18/8/1980,18/8/1980,3082,Royal Lyceum Theatre,Edinburgh,O/S,Scotland,55.946856,-3.204413,Dance,"Dance, Dance Theatre",Australian Dance Theatre,,3,6,,,,
29679,Seven Songs / Flibbertigibbet / Incident at Bull Creek / Labyrinth,https://ausstage.edu.au/pages/event/29679,1980,19/8/1980,19/8/1980,3082,Royal Lyceum Theatre,Edinburgh,O/S,Scotland,55.946856,-3.204413,Dance,"Dance, Dance Theatre",Australian Dance Theatre,,3,1,,,,
29807,Labyrinth / Broken Head / Flibbertigibbet / Transfigured Night,https://ausstage.edu.au/pages/event/29807,1982,4/7/1982,1982,4566,Schauspielhaus Buhne Der Stadt,Nordrhein-Westfalen,O/S,Germany,50.937811,6.95336,Dance,Dance Theatre,Australian Dance Theatre,,2,3,,,,
29808,While We Watched,https://ausstage.edu.au/pages/event/29808,1982,5/7/1982,,4566,Schauspielhaus Buhne Der Stadt,Nordrhein-Westfalen,O/S,Germany,50.937811,6.95336,Dance,Dance Theatre,Australian Dance Theatre,,1,0,While We Watched,,,
29814,Impromptu / Flibbertigibbet / Labyrinth / Transfigured Night,https://ausstage.edu.au/pages/event/29814,1982,16/7/1982,,4568,Fort Revelin,Dubrovnik,O/S,Croatia,42.641915,18.106585,Dance,Dance Theatre,Australian Dance Theatre,,3,0,,,,
29815,Winter By Spring / Paradigm / Flibbertigibbet / Stars End,https://ausstage.edu.au/pages/event/29815,1982,17/7/1982,,4568,Fort Revelin,Dubrovnik,O/S,Croatia,42.641915,18.106585,Dance,Dance Theatre,Australian Dance Theatre,,3,0,,,,
29816,Labyrinth / Flibbertigibbet / Transfigured Night,https://ausstage.edu.au/pages/event/29816,1982,21/7/1982,22/7/1982,4569,Lycabettus Theatre,Athens,O/S,Greece,37.984016,23.747066,Dance,Dance Theatre,Australian Dance Theatre,,23,3,,,,
30076,Didn't it Rain / This Train / Hex / Night Spell / Serendipity '66 / Rondel / Hallucinations / Creation / Spiritual / Landscape / Generation Gap / Sun and Moon / Homage to Botticelli /,https://ausstage.edu.au/pages/event/30076,1971,17/8/1971,19/8/1971,4593,National Military Centre for Culture and Arts,Taipei City,O/S,Taiwan,25.036756,121.519047,Dance,"Dance, Dance Theatre","Peter, Paul and Mary, The Beatles, Australian Dance Theatre, Taipei City Government Education Bureau, Taiwan Ministry of Education, Taiwan Ministry of Foreign Affairs",,24,0,,,,
31456,Kikimora / Nuti,https://ausstage.edu.au/pages/event/31456,1990,22/8/1990,24/8/1990,4669,Gedung Kesenian,Jakarta,O/S,Indonesia,-6.166293,106.834491,Dance,"Artist(s) with disability, Dance Theatre","Meryl Tankard Company, Australia Council for the Arts, Australia - Indonesia Institute",,10,0,,,,
31507,Furioso,https://ausstage.edu.au/pages/event/31507,1996,23/10/1996,26/10/1996,4674,Brooklyn Academy of Music,Fort Greene,O/S,United States of America,40.6881796,-73.9791004,Dance,Dance Theatre,"Australia Council for the Arts, Meryl Tankard Australian Dance Theatre, Brooklyn Academy of Music, Arts SA (1996-2016)",,18,0,Furioso,,,
31522,Songs With Mara,https://ausstage.edu.au/pages/event/31522,1997,4/2/1997,,4676,Neus Stadthalle (Town Hall),Neuss,O/S,Germany,51.19236,6.69896,Dance,Dance Theatre,"Meryl Tankard Australian Dance Theatre, Arts SA (1996-2016), Australia Council for the Arts",,15,0,Songs With Mara,,,
31525,Songs With Mara,https://ausstage.edu.au/pages/event/31525,1997,9/2/1997,,4677,Palais des Beaux Arts,Brussels,O/S,Belgium,50.8443176,4.3593582,Dance,Dance Theatre,"Meryl Tankard Australian Dance Theatre, Arts SA (1996-2016), Australia Council for the Arts",,15,0,Songs With Mara,,,
31526,Songs With Mara,https://ausstage.edu.au/pages/event/31526,1997,14/2/1997,,4678,Ludwigsburg Forum,Ludwigsburg,O/S,Germany,48.892338,9.195116,Dance,Dance Theatre,"Meryl Tankard Australian Dance Theatre, Arts SA (1996-2016), Australia Council for the Arts",,15,0,Songs With Mara,,,
31531,Furioso,https://ausstage.edu.au/pages/event/31531,1997,6/2/1997,,4681,Vlaamse Opernhaus,Gent,O/S,Belgium,51.04983,3.722318,Dance,Dance Theatre,"Meryl Tankard Australian Dance Theatre, Arts SA (1996-2016), Australia Council for the Arts",,16,0,Furioso,,,
31534,Furioso,https://ausstage.edu.au/pages/event/31534,1997,17/2/1997,18/2/1997,4682,Theater im Pfalzbau,Ludwigshafen,O/S,Germany,49.479188,8.445597,Dance,Dance Theatre,"Meryl Tankard Australian Dance Theatre, Arts SA (1996-2016), Australia Council for the Arts",,16,0,Furioso,,,
31535,Furioso,https://ausstage.edu.au/pages/event/31535,1997,21/2/1997,21/2/1997,4683,Jahrhunderthalle,Frankfurt,O/S,Germany,50.099232,8.51876,Dance,Dance Theatre,"Meryl Tankard Australian Dance Theatre, Arts SA (1996-2016), Australia Council for the Arts",,16,0,Furioso,,,
31536,Furioso (Songs with Mara),https://ausstage.edu.au/pages/event/31536,1997,23/2/1997,23/2/1997,4684,Forum Niederberg,Velbert,O/S,Germany,51.341953,7.04695,Dance,Dance Theatre,"Meryl Tankard Australian Dance Theatre, Arts SA (1996-2016), Australia Council for the Arts",,16,0,Songs With Mara,,,
31537,Furioso,https://ausstage.edu.au/pages/event/31537,1997,26/2/1997,26/2/1997,4685,Forum Leverkusen,Leverkusen,O/S,Germany,51.035078,6.989177,Dance,Dance Theatre,"Meryl Tankard Australian Dance Theatre, Arts SA (1996-2016), Australia Council for the Arts",,16,0,Furioso,,,
31538,Furioso,https://ausstage.edu.au/pages/event/31538,1997,1/3/1997,1/3/1997,4686,Antwerpen Opernhaus,Antwerpen,O/S,Belgium,51.218667,4.416022,Dance,Dance Theatre,"Meryl Tankard Australian Dance Theatre, Arts SA (1996-2016), Australia Council for the Arts",,16,0,Furioso,,,
31539,Furioso,https://ausstage.edu.au/pages/event/31539,1997,4/3/1997,4/3/1997,4687,Graf-Zeppelin-Haus,Friedrichshafen,O/S,Germany,47.65123,9.46909,Dance,Dance Theatre,"Meryl Tankard Australian Dance Theatre, Arts SA (1996-2016), Australia Council for the Arts",,13,0,Furioso,,,
31540,Furioso,https://ausstage.edu.au/pages/event/31540,1997,8/3/1997,8/3/1997,4688,Musikhuset Aarhus,,O/S,Denmark,56.1518,10.200697,Dance,Dance Theatre,"Meryl Tankard Australian Dance Theatre, Arts SA (1996-2016), Australia Council for the Arts",,16,0,Furioso,,,
31584,Furioso,https://ausstage.edu.au/pages/event/31584,1999,29/1/1999,30/1/1999,4692,"Stanford University, Stanford Lively Arts",Stanford,O/S,United States of America,37.432967,-122.170442,Dance,Dance Theatre,"Meryl Tankard Australian Dance Theatre, Arts SA (1996-2016), Australia Council for the Arts",,18,0,Furioso,,,
31586,Furioso,https://ausstage.edu.au/pages/event/31586,1999,6/3/1999,,4693,Benedum Center,Pittsburgh,O/S,United States of America,40.442846,-79.998754,Dance,Dance Theatre,"Meryl Tankard Australian Dance Theatre, Pittsburgh Dance Council",,5,0,Furioso,,,
31590,Furioso,https://ausstage.edu.au/pages/event/31590,1999,4/5/1999,8/5/1999,13438,Sadler's Wells Theatre,London,O/S,England,51.529037,-0.106354,Dance,Dance Theatre,"Meryl Tankard Australian Dance Theatre, Arts SA (1996-2016), Australia Council for the Arts",,16,1,Furioso,,,
31607,Furioso,https://ausstage.edu.au/pages/event/31607,1999,4/3/1999,,4695,"George Mason University, Center for the Arts",Fairfax,O/S,United States of America,38.829787,-77.30872,Dance,Dance Theatre,"Meryl Tankard Australian Dance Theatre, Washington Performing Arts Society, Arts SA (1996-2016), Australia Council for the Arts",,18,0,Furioso,,,
31609,Furioso,https://ausstage.edu.au/pages/event/31609,1999,23/3/1999,,4696,"The Ohio State University, Wexner Center for the Arts",Columbus,O/S,United States of America,40.000675,-83.0082,Dance,Dance Theatre,"Meryl Tankard Australian Dance Theatre, Arts SA (1996-2016), Australia Council for the Arts",,6,0,Furioso,,,
31611,Furioso,https://ausstage.edu.au/pages/event/31611,1999,11/3/1999,14/3/1999,4697,Emerson Majestic Theatre,Boston,O/S,United States of America,42.351582,-71.064817,Dance,Dance Theatre,"Meryl Tankard Australian Dance Theatre, Dance Umbrella, Arts SA (1996-2016), Australia Council for the Arts",,6,0,Furioso,,,
31820,Kikimora / Nuti,https://ausstage.edu.au/pages/event/31820,1994,25/5/1994,,4717,Germany,,O/S,Germany,51.06289584,10.27612789,Dance,"Dance, Dance Theatre",Meryl Tankard Australian Dance Theatre,,1,0,,,,
31821,Kikimora / Nuti,https://ausstage.edu.au/pages/event/31821,1994,27/5/1994,,4717,Germany,,O/S,Germany,51.06289584,10.27612789,Dance,"Dance, Dance Theatre",Meryl Tankard Australian Dance Theatre,,1,0,,,,
31822,Kikimora / Nuti,https://ausstage.edu.au/pages/event/31822,1994,29/5/1994,,4717,Germany,,O/S,Germany,51.06289584,10.27612789,Dance,"Dance, Dance Theatre",Meryl Tankard Australian Dance Theatre,,1,0,,,,
31823,Two Feet,https://ausstage.edu.au/pages/event/31823,1994,31/5/1994,,4717,Germany,,O/S,Germany,51.06289584,10.27612789,Dance,"Dance, Dance Theatre",Meryl Tankard Australian Dance Theatre,,1,0,Two Feet,,,
31828,Furioso,https://ausstage.edu.au/pages/event/31828,1995,4/11/1995,5/11/1995,4717,Germany,,O/S,Germany,51.06289584,10.27612789,Dance,Dance Theatre,Meryl Tankard Australian Dance Theatre,,1,0,Furioso,,,
31829,Furioso,https://ausstage.edu.au/pages/event/31829,1995,15/11/1995,15/11/1995,4678,Ludwigsburg Forum,Ludwigsburg,O/S,Germany,48.892338,9.195116,Dance,Dance Theatre,Meryl Tankard Australian Dance Theatre,,1,0,Furioso,,,
31981,Furioso,https://ausstage.edu.au/pages/event/31981,1996,1/11/1996,1/11/1996,4726,"University of Minnesota, Northrop Auditorium",Minneapolis,O/S,United States of America,44.976501,-93.233824,Dance,Dance Theatre,Meryl Tankard Australian Dance Theatre,,2,0,Furioso,,,
31984,Furioso,https://ausstage.edu.au/pages/event/31984,1996,5/11/1996,9/11/1996,4727,Harbourfront Centre,Toronto,O/S,Canada,46.63813,-79.385,Dance,Dance Theatre,Meryl Tankard Australian Dance Theatre,,2,0,Furioso,,,
31986,Furioso,https://ausstage.edu.au/pages/event/31986,1997,2/12/1997,2/12/1997,4728,Claude Debussy Auditorium,Cannes,O/S,France,43.569704,6.985795,Dance,Dance Theatre,Meryl Tankard Australian Dance Theatre,,2,0,Furioso,,,
31989,Furioso,https://ausstage.edu.au/pages/event/31989,1997,5/12/1997,5/12/1997,4729,La Coursive,La Rochelle,O/S,France,46.156657,-1.154582,Dance,Dance Theatre,Meryl Tankard Australian Dance Theatre,,1,0,Furioso,,,
31993,Furioso,https://ausstage.edu.au/pages/event/31993,1997,9/12/1997,9/12/1997,4730,Centre Culturel de L'Espal,Le Mans,O/S,France,47.995537,0.233668,Dance,Dance Theatre,Meryl Tankard Australian Dance Theatre,,2,0,Furioso,,,
31994,Furioso,https://ausstage.edu.au/pages/event/31994,1997,12/12/1997,13/12/1997,4731,Nouveau Theatre D'Angers,Angers,O/S,France,47.47313,-0.564386,Dance,Dance Theatre,Meryl Tankard Australian Dance Theatre,,2,0,Furioso,,,
31997,Inuk,https://ausstage.edu.au/pages/event/31997,1997,21/8/1997,23/8/1997,4717,Germany,,O/S,Germany,51.06289584,10.27612789,Dance,Dance Theatre,Meryl Tankard Australian Dance Theatre,,3,0,,,,
32010,Furioso,https://ausstage.edu.au/pages/event/32010,1998,22/4/1998,25/4/1998,4733,Maison de la Danse,Lyon,O/S,France,45.73542,4.872153,Dance,Dance Theatre,Meryl Tankard Australian Dance Theatre,,2,0,Furioso,,,
32012,Furioso,https://ausstage.edu.au/pages/event/32012,1998,27/4/1998,30/4/1998,4735,Theatre Municipal,Luxembourg,O/S,Luxembourg,49.617663,6.126115,Dance,Dance Theatre,Meryl Tankard Australian Dance Theatre,,2,0,Furioso,,,
32014,Furioso,https://ausstage.edu.au/pages/event/32014,1998,5/5/1998,9/5/1998,21499,Het Muziektheater,Amsterdam,O/S,Netherlands,52.367493,4.901872,Dance,Dance Theatre,Meryl Tankard Australian Dance Theatre,,2,0,Furioso,,,
32016,Furioso,https://ausstage.edu.au/pages/event/32016,1998,7/9/1998,15/9/1998,4737,Tokyo,Tokyo,O/S,Japan,35.689488,139.691706,Dance,Dance Theatre,Meryl Tankard Australian Dance Theatre,,2,0,Furioso,,,
32019,Furioso,https://ausstage.edu.au/pages/event/32019,1998,14/5/1998,14/5/1998,4738,Stadthof 11 Theatre,Zürich,O/S,Switzerland,47.41068,8.549758,Dance,Dance Theatre,Meryl Tankard Australian Dance Theatre,,2,0,Furioso,,,
32021,Inuk,https://ausstage.edu.au/pages/event/32021,1998,16/5/1998,16/5/1998,4739,Theatre Casino,Zug,O/S,Switzerland,47.164587,8.5139,Dance,Dance Theatre,Meryl Tankard Australian Dance Theatre,,2,0,,,,
32023,Furioso,https://ausstage.edu.au/pages/event/32023,1998,19/5/1998,23/5/1998,4740,Tel Aviv Performing Arts Centre,Tel Aviv,O/S,Israel,32.076046,34.785104,Dance,Dance Theatre,Meryl Tankard Australian Dance Theatre,,2,0,Furioso,,,
32036,Furioso,https://ausstage.edu.au/pages/event/32036,1998,27/5/1998,28/5/1998,4742,Bergen Grieghallen,Bergen,O/S,Norway,60.388748,5.326374,Dance,Dance Theatre,Meryl Tankard Australian Dance Theatre,,2,0,Furioso,,,
32056,Birdbrain,https://ausstage.edu.au/pages/event/32056,2001,18/9/2001,,4749,National Arts Centre,Ottawa,O/S,Canada,45.423237,-75.692228,Dance,"Artist(s) with disability, Dance Theatre",Australian Dance Theatre,,2,0,Birdbrain,,,
32057,Birdbrain,https://ausstage.edu.au/pages/event/32057,2001,22/7/2001,26/7/2001,4750,Seoul Arts Center,Seoul,O/S,South Korea,37.478945,127.012339,Dance,"Artist(s) with disability, Dance Theatre",Australian Dance Theatre,,2,0,Birdbrain,,,
32058,Birdbrain,https://ausstage.edu.au/pages/event/32058,2001,2/10/2001,6/10/2001,4727,Harbourfront Centre,Toronto,O/S,Canada,46.63813,-79.385,Dance,"Artist(s) with disability, Dance Theatre",Australian Dance Theatre,,2,0,Birdbrain,,,
32071,Birdbrain,https://ausstage.edu.au/pages/event/32071,2002,10/10/2002,11/10/2002,4692,"Stanford University, Stanford Lively Arts",Stanford,O/S,United States of America,37.432967,-122.170442,Dance,"Artist(s) with disability, Dance Theatre",Australian Dance Theatre,,18,0,Birdbrain,,,
32077,Birdbrain,https://ausstage.edu.au/pages/event/32077,2002,15/10/2002,15/10/2002,4753,Zellerbach Theatre,Philadelphia,O/S,United States of America,39.953265,-75.196633,Dance,"Artist(s) with disability, Dance Theatre","Australian Dance Theatre, Dance Affiliates",,18,0,Birdbrain,,,
32086,Birdbrain,https://ausstage.edu.au/pages/event/32086,2002,20/10/2002,20/10/2002,4756,Zoellner Arts Center,Bethlehem,O/S,United States of America,40.608597,-75.37283,Dance,"Artist(s) with disability, Dance Theatre",Australian Dance Theatre,,8,0,Birdbrain,,,
32088,Birdbrain,https://ausstage.edu.au/pages/event/32088,2002,23/10/2002,23/10/2002,4757,Centennial Hall,Alaska,O/S,United States of America,58.3000096,-134.4119952,Dance,"Artist(s) with disability, Dance Theatre","Australian Dance Theatre, Juneau Arts and Humanities Council",,7,0,Birdbrain,,,
32094,Birdbrain,https://ausstage.edu.au/pages/event/32094,2002,24/10/2002,27/10/2002,4758,Alaska Centre for the Performing Arts,Anchorage,O/S,United States of America,61.21706,-149.8943449,Dance,"Artist(s) with disability, Dance Theatre","Australian Dance Theatre, Anchorage Concert Association",,7,0,Birdbrain,,,
32097,Birdbrain,https://ausstage.edu.au/pages/event/32097,2002,2/11/2002,2/11/2002,4761,Pikes Peak Center,Colorado,O/S,United States of America,38.830498,-104.826007,Dance,"Artist(s) with disability, Dance Theatre","Australian Dance Theatre, Colorado Springs Dance Theatre",,7,0,Birdbrain,,,
32101,Birdbrain,https://ausstage.edu.au/pages/event/32101,2002,7/11/2002,9/11/2002,4762,"The Dance Center, Columbia College",Chicago,O/S,United States of America,41.865547,-87.624612,Dance,"Artist(s) with disability, Dance Theatre",Australian Dance Theatre,,7,0,Birdbrain,,,
32107,Birdbrain,https://ausstage.edu.au/pages/event/32107,2002,1/6/2002,3/6/2002,4766,"National University of Singapore, University Cultural Centre",Singapore,O/S,Singapore,1.301897,103.772451,Dance,"Artist(s) with disability, Dance Theatre",Australian Dance Theatre,,7,0,Birdbrain,,,
32295,Labyrinth / Impromptu / Flibbertigibbet / Transfigured Night,https://ausstage.edu.au/pages/event/32295,1980,30/8/1980,,4782,Stichting Theater Zuidplein,Rotterdam,O/S,Netherlands,51.888083,4.49026,Dance,"Contemporary, Dance Theatre",Australian Dance Theatre,,9,0,,,,
32323,Let's Do It / Never Mind the Bindies / Tu Tu Wah,https://ausstage.edu.au/pages/event/32323,1992,13/9/1992,,4784,Victoria Theatre,Singapore,O/S,Singapore,1.28767,103.851803,Dance,"Contemporary, Dance Theatre",Australian Dance Theatre,,5,0,,,,
32407,Possessed,https://ausstage.edu.au/pages/event/32407,1999,8/4/1999,,4788,Tent Chapiteau,Champigny,O/S,France,48.817049,2.515556,Dance,Dance Theatre,Meryl Tankard Australian Dance Theatre,,1,0,,,,
32408,Furioso,https://ausstage.edu.au/pages/event/32408,1999,12/4/1999,13/4/1999,4789,Mason des Arts,Créteil,O/S,France,48.778478,2.45379,Dance,Dance Theatre,Meryl Tankard Australian Dance Theatre,,2,0,Furioso,,,
32409,Possessed,https://ausstage.edu.au/pages/event/32409,1999,1999-05,,4790,Viehauktionshalle Weimar,Weimar,O/S,Germany,50.984712,11.32254,Dance,Dance Theatre,Meryl Tankard Australian Dance Theatre,,1,0,,,,
32410,Possessed,https://ausstage.edu.au/pages/event/32410,1999,1999-05,,4685,Forum Leverkusen,Leverkusen,O/S,Germany,51.035078,6.989177,Dance,Dance Theatre,Meryl Tankard Australian Dance Theatre,,1,0,,,,
32680,Furioso,https://ausstage.edu.au/pages/event/32680,1999,1999,,4804,Theatre der Stadt,Remscheid,O/S,Germany,51.181727,7.1878,Dance,Dance Theatre,Meryl Tankard Australian Dance Theatre,,2,0,Furioso,,,
32683,Furioso,https://ausstage.edu.au/pages/event/32683,1999,9/2/1999,,4177,Centennial Hall,Tucson,O/S,United States of America,32.231489,-110.955434,Dance,Dance Theatre,Meryl Tankard Australian Dance Theatre,,3,0,Furioso,,,
32685,Furioso,https://ausstage.edu.au/pages/event/32685,1999,29/1/1999,,4674,Brooklyn Academy of Music,Fort Greene,O/S,United States of America,40.6881796,-73.9791004,Dance,Dance Theatre,Meryl Tankard Australian Dance Theatre,,3,0,Furioso,,,
32689,Furioso,https://ausstage.edu.au/pages/event/32689,1999,1999,,4805,Royce Hall,Los Angeles,O/S,United States of America,34.075479,-118.439743,Dance,Dance Theatre,Meryl Tankard Australian Dance Theatre,,3,0,Furioso,,,
32691,Furioso,https://ausstage.edu.au/pages/event/32691,1999,1999,,4176,Scottsdale Center For the Arts,Arizona,O/S,United States of America,33.491326,-111.922455,Dance,Dance Theatre,Meryl Tankard Australian Dance Theatre,,3,0,Furioso,,,
32697,Furioso,https://ausstage.edu.au/pages/event/32697,1999,19/1/1999,20/1/1999,4806,Power Center,Ann Arbor,O/S,United States of America,42.28077,-83.735926,Dance,Dance Theatre,"Meryl Tankard Australian Dance Theatre, University Musical Society",,3,0,Furioso,,,
32706,Furioso,https://ausstage.edu.au/pages/event/32706,1999,26/2/1999,1999,4808,Purchase Center for Performing Arts,Purchase,O/S,United States of America,41.038662,-73.697509,Dance,Dance Theatre,Meryl Tankard Australian Dance Theatre,,3,0,Furioso,,,
32707,Furioso,https://ausstage.edu.au/pages/event/32707,1999,2/3/1999,1999,4160,McCarter Theatre,Princeton,O/S,United States of America,40.343486,-74.65991,Dance,Dance Theatre,Meryl Tankard Australian Dance Theatre,,3,0,Furioso,,,
32708,Furioso,https://ausstage.edu.au/pages/event/32708,1999,1999,1999,4809,Washington Performing Arts Center,Washington,O/S,United States of America,35.550627,-77.060186,Dance,Dance Theatre,Meryl Tankard Australian Dance Theatre,,3,0,Furioso,,,
32729,Carvalho / Gat / Guerin / Forsythe,https://ausstage.edu.au/pages/event/32729,2016,20/2/2016,27/2/2016,13370,Theatre de la Ville,Paris,O/S,France,48.857388,2.34777,Dance,Contemporary,Ballet de l'Opéra de Lyon,,12,3,"Black Box, One Flat Thing, Reproduced, Sunshine, Xylographie",,,
32783,"Blues / This Train / Spiritual / Hallucinations / Gin, Woman, Distress / Retrospective / Sundown / Grizzly Bear",https://ausstage.edu.au/pages/event/32783,1968,23/7/1968,,4811,Teatro All'aperto,Lipari Messina,O/S,Italy,38.466999,14.957079,Dance,Dance Theatre,"Peter, Paul and Mary, Australian Dance Theatre",,9,0,,,,
33081,Birdbrain,https://ausstage.edu.au/pages/event/33081,2003,24/10/2003,26/10/2003,4825,Kassa Lucent Danstheater,Den Haag,O/S,Netherlands,52.076828,4.317197,Dance,"Artist(s) with disability, Dance Theatre","Australian Dance Theatre, Holland Festival",,7,0,Birdbrain,,,
33099,Cut and Thrust,https://ausstage.edu.au/pages/event/33099,1983,28/9/1983,,4829,The Drill Hall,Soho,O/S,England,51.520823,-0.132651,Music Theatre,Music Theatre,Silver Lining Limited,,11,0,,,,
33100,The Colony Comes a Cropper,https://ausstage.edu.au/pages/event/33100,1990,7/11/1990,25/11/1990,3462,Battersea Arts Centre,Battersea,O/S,England,51.4649487,-0.1605115,Music Theatre,Comedy,"Monstrous Regiment, The Salisbury Arts Theatre Ltd.","Feminism, Gender roles, Women, Women's Issues",14,0,,,,
33108,A Star is Torn,https://ausstage.edu.au/pages/event/33108,1982,1/6/1982,3/7/1982,4832,"Theatre Royal, Stratford East",Stratford,O/S,England,51.542413,0.001046,Music Theatre,"Biographical, Song, Theatre",Helen Montagu Productions,"Biography, Entertainers",7,7,A Star is Torn,,,
33109,A Star is Torn,https://ausstage.edu.au/pages/event/33109,1982,4/8/1982,29/1/1983,13446,Wyndham's Theatre,London,O/S,England,51.511052,-0.128221,Music Theatre,"Biographical, Music Theatre, Song",Helen Montagu Productions,"Biography, Entertainers",7,7,A Star is Torn,,,
60383,The Pack of Women,https://ausstage.edu.au/pages/event/60383,1981,11/11/1981,,4829,The Drill Hall,Soho,O/S,England,51.520823,-0.132651,Music,"Cabaret, Dance, Poetry, Song",Diehard Productions,"Feminism, Women's Issues",5,1,The Pack of Women,,,
60606,Circus Oz,https://ausstage.edu.au/pages/event/60606,1980,15/12/1980,17/1/1981,10110,Chichester Festival Theatre,Chichester,O/S,England,50.8428899,-0.777384,Other,"Circus, Group-devised, Variety","Circus Oz, Circus Australia Ltd, Australia Council for the Arts, Department of Foreign Affairs and Trade",,14,0,,,,
60608,Circus Oz,https://ausstage.edu.au/pages/event/60608,1980,2/11/1980,29/11/1980,10112,Roundhouse Theatre,London,O/S,England,51.543297,-0.151925,Other,"Circus, Group-devised, Variety","Circus Oz, Circus Australia Ltd, Australia Council for the Arts, Department of Foreign Affairs and Trade",,14,4,,,,
60810,Circus Oz,https://ausstage.edu.au/pages/event/60810,1984,29/6/1984,10/7/1984,13911,Freud Theatre,Los Angeles,O/S,United States of America,34.06503,-118.445326,Other,"Circus, Group-devised, Variety","Circus Oz, Circus Australia Ltd, Australia Council for the Arts",,0,0,,,,
60869,Circus Oz,https://ausstage.edu.au/pages/event/60869,1987,10/8/1987,30/8/1987,10177,The Assembly Rooms,Edinburgh,O/S,Scotland,55.953028,-3.198743,Other,"Circus, Group-devised, Variety","Circus Oz, Circus Australia Ltd, Edinburgh International Festival, Australia Council for the Arts",,16,1,,,,
60870,Circus Oz in Portsmouth,https://ausstage.edu.au/pages/event/60870,1987,9/5/1987,26/5/1987,10507,King's Theatre,Southsea,O/S,England,50.786911,-1.081168,Other,"Circus, Group-devised, Variety","Circus Oz, Circus Australia Ltd, Portsmouth Festival UK, Australia Council for the Arts",,16,0,,,,
60873,Circus Oz,https://ausstage.edu.au/pages/event/60873,1987,14/7/1987,9/8/1987,13921,Coin Street,Southbank,O/S,England,51.508229,-0.108174,Other,"Circus, Group-devised, Variety","Circus Oz, Circus Australia Ltd, Australia Council for the Arts",,16,0,,,,
60881,Circus Oz,https://ausstage.edu.au/pages/event/60881,1987,23/6/1987,13/7/1987,10184,Palace of Fine Arts Theatre,California,O/S,United States of America,37.8029742,-122.4480896,Other,"Circus, Group-devised, Variety","Circus Oz, Circus Australia Ltd, Australia Council for the Arts",,16,0,,,,
60918,Circus Oz,https://ausstage.edu.au/pages/event/60918,1988,6/8/1988,3/9/1988,10177,The Assembly Rooms,Edinburgh,O/S,Scotland,55.953028,-3.198743,Other,"Circus, Group-devised, Variety","Circus Oz, Australian Bicentennial Authority, Australia Council for the Arts, QANTAS",,0,2,,,,
60922,Circus Oz,https://ausstage.edu.au/pages/event/60922,1988,13/9/1988,17/9/1988,10194,"Theatre Royal, Plymouth",Plymouth,O/S,England,50.370018,-4.144728,Other,"Circus, Group-devised, Variety","Circus Oz, Australian Bicentennial Authority, Australia Council for the Arts",,0,0,,,,
60923,Circus Oz,https://ausstage.edu.au/pages/event/60923,1988,27/9/1988,1/10/1988,3033,Gaiety Theatre,Dublin,O/S,Ireland,53.34024,-6.261846,Other,"Circus, Group-devised, Variety","Circus Oz, Australian Bicentennial Authority, Australia Council for the Arts",,0,0,,,,
61035,Non Stop Energy,https://ausstage.edu.au/pages/event/61035,1990,4/5/1990,12/5/1990,10242,Zellerbach Hall,Berkeley,O/S,United States of America,37.869094,-122.260692,Other,"Circus, Group-devised, Variety","Circus Oz, Cal Performances, Australia Council for the Arts, The Victorian Ministry for the Arts, QANTAS",,22,1,Non Stop Energy,,,
61037,Non Stop Energy,https://ausstage.edu.au/pages/event/61037,1990,13/5/1990,22/5/1990,10244,Tennessee Amphitheatre,Tennessee,O/S,United States of America,35.961172,-83.923888,Other,"Circus, Group-devised, Variety","Circus Oz, Knoxville World Festival, Australia Council for the Arts, The Victorian Ministry for the Arts, QANTAS",,22,1,Non Stop Energy,,,
61038,Non Stop Energy,https://ausstage.edu.au/pages/event/61038,1990,28/5/1990,1/7/1990,10245,City Center Theatre,New York,O/S,United States of America,40.7636287,-73.9795713,Other,"Circus, Group-devised, Variety","Circus Oz, City Center Theatre, Australia Council for the Arts, The Victorian Ministry for the Arts, QANTAS",,22,1,Non Stop Energy,,,
61041,Circus Oz,https://ausstage.edu.au/pages/event/61041,1990,16/7/1990,31/7/1990,13930,Garden Expo Stage,Osaka,O/S,Japan,34.80577,135.53232,Other,"Circus, Group-devised, Variety","Circus Oz, QANTAS",,0,0,,,,
61053,Circus Oz,https://ausstage.edu.au/pages/event/61053,1991,29/6/1991,4/8/1991,10248,Gandy's Tent,Manchester,O/S,England,53.478598,-2.257631,Other,"Circus, Group-devised, Variety","Circus Oz, Granada Television, Australia Council for the Arts, The Victorian Ministry for the Arts, QANTAS, Victorian Tourist Commission",,17,3,,,,
61083,Circus Oz,https://ausstage.edu.au/pages/event/61083,1991,5/8/1991,2/9/1991,13931,The Meadows,Edinburgh,O/S,Scotland,55.94128,-3.19224,Other,"Circus, Group-devised, Variety","Circus Oz, Assembly Theatre, Edinburgh Fringe Festival, Australia Council for the Arts, The Victorian Ministry for the Arts, QANTAS, Victorian Tourist Commission",,17,0,,,,
61097,Circus Oz,https://ausstage.edu.au/pages/event/61097,1992,6/6/1992,14/6/1992,10254,Merle Reskin Theatre,Chicago,O/S,United States of America,41.873244,-87.625322,Other,"Circus, Group-devised, Physical Theatre, Variety","Circus Oz, Australia Council for the Arts, The Victorian Ministry for the Arts, OTC Communications, QANTAS",,19,2,,,,
61190,Circus Oz,https://ausstage.edu.au/pages/event/61190,1997,14/11/1997,5/1/1998,10279,New Victory Theater,New York,O/S,United States of America,40.756343,-73.987634,Other,"Circus, Group-devised, Physical Theatre, Variety","Circus Oz, Arts Victoria, Australia Council for the Arts, Circus Oz Band",Human Animals,21,2,,,,
61622,Often I Find That I Am Naked,https://ausstage.edu.au/pages/event/61622,1999,1999,1999,4717,Germany,,O/S,Germany,51.06289584,10.27612789,Theatre - Spoken Word,,,,1,0,Often I Find That I Am Naked,,,
61623,Often I Find That I Am Naked,https://ausstage.edu.au/pages/event/61623,2001,2001,2001,4717,Germany,,O/S,Germany,51.06289584,10.27612789,Theatre - Spoken Word,,,,1,0,Often I Find That I Am Naked,,,
61714,Chu Chin Chow,https://ausstage.edu.au/pages/event/61714,1928,26/12/1928,19/1/1929,10380,Regent Theatre,Kings Cross,O/S,England,51.529398,-0.124636,Music Theatre,Musical,"The London Repertory Company, Variety Theatres Consolidated Ltd",,19,0,Chu Chin Chow,,,
62095,Chu Chin Chow,https://ausstage.edu.au/pages/event/62095,1916,31/8/1916,22/7/1921,10408,His Majesty's Theatre,Haymarket,O/S,England,51.508301,-0.131728,Music Theatre,Musical,,,47,27,Chu Chin Chow,,,
62117,Chu Chin Chow,https://ausstage.edu.au/pages/event/62117,1917,22/10/1917,14/1/1918,10409,Manhattan Opera House,New York,O/S,United States of America,40.74985,-73.995525,Music Theatre,Musical,,,24,1,Chu Chin Chow,,,
62179,Virtually Richard3,https://ausstage.edu.au/pages/event/62179,2004,1/7/2004,3/7/2004,15791,Tjibaou Cultural Centre,Nouméa,O/S,New Caledonia,-22.25585797,166.4824179,Dance,Contemporary,Expressions Dance Company,,14,0,"King Richard the Third, Virtually Richard3",,,
62180,Virtually Richard3,https://ausstage.edu.au/pages/event/62180,2004,23/3/2004,25/3/2004,10413,Palacio de Bellas Artes Theatre,Cuauhtémoc,O/S,Mexico,19.435452,-99.141171,Dance,Contemporary,Expressions Dance Company,,14,0,"King Richard the Third, Virtually Richard3",,,
62205,The Barretts and Mr. Browning,https://ausstage.edu.au/pages/event/62205,1964,9/9/1964,24/9/1964,10415,Grand Theatre Leeds,Leeds,O/S,England,53.80017,-1.541124,Music Theatre,"Historical, Musical, Musical Biography, Romantic",Marlan Productions Ltd,,38,0,,,,
62206,Robert and Elizabeth,https://ausstage.edu.au/pages/event/62206,1964,20/10/1964,4/2/1967,709,Lyric Theatre,Leicester,O/S,England,51.511291,-0.13349,Music Theatre,"Historical, Musical, Musical Biography, Romantic",Marlan Productions Ltd,,41,6,"Robert and Elizabeth, The Barretts of Wimpole Street",,,
62254,Robert and Elizabeth,https://ausstage.edu.au/pages/event/62254,1974,1/11/1974,1975,10421,Forum Theater,Chicago,O/S,United States of America,41.867085,-87.645606,Music Theatre,"Historical, Musical, Musical Biography, Romantic",,,16,3,"Robert and Elizabeth, The Barretts of Wimpole Street",,,
62255,Robert and Elizabeth,https://ausstage.edu.au/pages/event/62255,1978,21/8/1978,2/9/1978,10422,Brunswick Music Theater,Maine,O/S,United States of America,43.912585,-69.965914,Music Theatre,"Historical, Musical, Musical Biography, Romantic",,,22,0,"Robert and Elizabeth, The Barretts of Wimpole Street",,,
62383,Robert and Elizabeth,https://ausstage.edu.au/pages/event/62383,1982,30/10/1982,19/12/1982,10440,Paper Mill Playhouse,Milburn,O/S,United States of America,40.727797,-74.309339,Music Theatre,"Historical, Musical, Musical Biography, Romantic",,,14,0,"Robert and Elizabeth, The Barretts of Wimpole Street",,,
62386,Robert and Elizabeth,https://ausstage.edu.au/pages/event/62386,1987,29/4/1987,1987,10110,Chichester Festival Theatre,Chichester,O/S,England,50.8428899,-0.777384,Music Theatre,"Historical, Musical, Musical Biography, Romantic",,,14,2,"Robert and Elizabeth, The Barretts of Wimpole Street",,,
62387,Robert and Elizabeth,https://ausstage.edu.au/pages/event/62387,2000,14/11/2000,18/11/2000,3081,Lyceum Theatre,Sheffield,O/S,England,53.380513,-1.466748,Music Theatre,"Historical, Musical, Musical Biography, Romantic",Sheffield Teachers' Operatic Scoiety,,14,0,"Robert and Elizabeth, The Barretts of Wimpole Street",,,
62817,Sing a Rude Song,https://ausstage.edu.au/pages/event/62817,1970,17/2/1970,14/3/1970,10486,Greenwich Theatre,Greenwich,O/S,England,51.479363,-0.007916,Music Theatre,"Musical, Musical Biography",Greenwich Theatre Limited,,24,2,,,,
62818,Sing a Rude Song,https://ausstage.edu.au/pages/event/62818,1970,26/5/1970,25/7/1970,3564,Garrick Theatre,Westminster,O/S,England,51.510098,-0.128038,Music Theatre,"Musical, Musical Biography",Greenwich Theatre Limited,,25,2,,,,
62971,On the Level,https://ausstage.edu.au/pages/event/62971,1966,19/4/1966,30/7/1966,10496,Saville Theatre,London,O/S,England,51.514322,-0.128262,Music Theatre,Musical,Marlan Productions Ltd,,53,5,On the Level,,,
62972,Nickleby and Me,https://ausstage.edu.au/pages/event/62972,1975,8/12/1975,24/1/1976,4832,"Theatre Royal, Stratford East",Stratford,O/S,England,51.542413,0.001046,Music Theatre,"Adaptation, Musical","Theatre Royal, Stratford East",,24,4,"Nicholas Nickleby, or The Fortunes of Smike",,,
62975,Nickleby and Me,https://ausstage.edu.au/pages/event/62975,1981,15/12/1981,9/1/1982,10110,Chichester Festival Theatre,Chichester,O/S,England,50.8428899,-0.777384,Music Theatre,"Adaptation, Musical",Chichester Festival Theatre Company,,23,1,"Nicholas Nickleby, or The Fortunes of Smike",,,
62976,Streetwalker,https://ausstage.edu.au/pages/event/62976,1990,19/1/1990,11/2/1990,10497,Bush Theatre,Hammersmith and Fulham,O/S,England,51.503471,-0.223874,Music Theatre,"Adaptation, Musical",Babel Theatre Company Limited,,12,12,,,,
62977,Pin Money Opera,https://ausstage.edu.au/pages/event/62977,1991,17/7/1991,4/8/1991,3462,Battersea Arts Centre,Battersea,O/S,England,51.4649487,-0.1605115,Music Theatre,Musical,Babel Theatre Company Limited,Relationships,12,8,,,,
62982,House of Obsession,https://ausstage.edu.au/pages/event/62982,1989,1989-05,1989,10499,George Wood Theatre,New Cross,O/S,England,51.474072,-0.036662,Music Theatre,"Musical, Musical Biography",Babel Theatre Company Limited,Death,10,5,,,,
62983,House of Obsession,https://ausstage.edu.au/pages/event/62983,1989,16/5/1989,4/6/1989,10500,Canal Cafe Theatre,Maida Vale,O/S,England,51.520982,-0.184304,Music Theatre,"Musical, Musical Biography",Babel Theatre Company Limited,Death,10,0,,,,
62984,House of Obsession,https://ausstage.edu.au/pages/event/62984,1989,21/6/1989,24/6/1989,10501,Half Moon Theatre,London,O/S,England,51.522196,-0.045481,Music Theatre,"Musical, Musical Biography",Babel Theatre Company Limited,Death,10,0,,,,
62989,Josephine,https://ausstage.edu.au/pages/event/62989,1992,23/11/1992,16/1/1993,3462,Battersea Arts Centre,Battersea,O/S,England,51.4649487,-0.1605115,Music Theatre,"Musical, Musical Biography",,,14,10,,,,
63031,Josephine,https://ausstage.edu.au/pages/event/63031,1995,1995-04,13/5/1995,10506,Coliseum Theatre,Oldham,O/S,England,53.542653,-2.108488,Music Theatre,"Musical, Musical Biography",,,12,2,,,,
63032,Josephine,https://ausstage.edu.au/pages/event/63032,1995,1995-06,1995-06,10507,King's Theatre,Southsea,O/S,England,50.786911,-1.081168,Music Theatre,"Musical, Musical Biography",,,12,3,,,,
63033,Josephine,https://ausstage.edu.au/pages/event/63033,1995,1995-06,1995-06,4409,Key Theatre,Peterborough,O/S,England,52.568636,-0.238673,Music Theatre,"Musical, Musical Biography",,,12,1,,,,
63034,Josephine,https://ausstage.edu.au/pages/event/63034,1995,1995-06,24/6/1995,10415,Grand Theatre Leeds,Leeds,O/S,England,53.80017,-1.541124,Music Theatre,"Musical, Musical Biography",,,12,1,,,,
63035,Josephine,https://ausstage.edu.au/pages/event/63035,1995,1995-09,1995-09,10508,Harlow Playhouse,Harlow,O/S,England,51.76836,0.092381,Music Theatre,"Musical, Musical Biography",,,12,1,,,,
63042,The Fall of the House of Usher,https://ausstage.edu.au/pages/event/63042,1999,1999,1999,10509,Bridewell Theatre,London,O/S,England,51.513462,-0.105105,Music Theatre,Musical,,,2,1,,,,
63043,Mary and the Shaman,https://ausstage.edu.au/pages/event/63043,1998,2/12/1998,3/1/1999,3462,Battersea Arts Centre,Battersea,O/S,England,51.4649487,-0.1605115,Music Theatre,Musical,,,8,3,,,,
63044,Wedlock - the Opera,https://ausstage.edu.au/pages/event/63044,1993,11/6/1993,4/7/1993,3462,Battersea Arts Centre,Battersea,O/S,England,51.4649487,-0.1605115,Music Theatre,"Musical, Opera",,,11,3,,,,
63045,Moses!,https://ausstage.edu.au/pages/event/63045,1999,2/5/1999,2/5/1999,10510,West London Synagogue,London,O/S,England,51.515534,-0.162069,Music Theatre,Musical,,Religion,26,4,,,,
63075,Moses!,https://ausstage.edu.au/pages/event/63075,1999,26/10/1999,26/10/1999,10514,Kaufmann Concert Hall,New York,O/S,United States of America,40.782752,-73.952907,Music Theatre,"Musical, Opera","Shenval Music Australia Pty Ltd, Dolphin in the West, Marcus Kettles Productions",Religion,6,1,,,,
63076,Legs Diamond,https://ausstage.edu.au/pages/event/63076,1988,18/10/1988,19/2/1989,10515,Mark Hellinger Theatre,New York,O/S,United States of America,40.762571,-73.984842,Music Theatre,"Musical, Musical Biography",,,20,15,,,,
63080,The Legend of King O'Malley,https://ausstage.edu.au/pages/event/63080,1972,15/5/1972,16/5/1972,10516,Civic Theatre Auditorium,City Center,O/S,Fiji,-18.140917,178.42239,Music Theatre,"Musical, Musical Biography","The Old Tote Theatre Company, The University of NSW, Drama Foundation",,17,2,The Legend of King O'Malley,,,
63104,The Legend of King O'Malley,https://ausstage.edu.au/pages/event/63104,1972,29/5/1972,3/6/1972,28841,Star Boating Club,Wellington,O/S,New Zealand,-41.28826552,174.7797309,Music Theatre,"Musical, Musical Biography","The Old Tote Theatre Company, The University of NSW, Drama Foundation",,20,2,The Legend of King O'Malley,,,
63105,The Legend of King O'Malley,https://ausstage.edu.au/pages/event/63105,1972,19/5/1972,27/5/1972,10517,Mercury Theatre,Auckland,O/S,New Zealand,-36.858182,174.758981,Music Theatre,"Musical, Musical Biography","The Old Tote Theatre Company, The University of NSW, Drama Foundation, Auckland Festival Society Inc.",,17,8,The Legend of King O'Malley,,,
63261,Chu Chin Chow,https://ausstage.edu.au/pages/event/63261,1940,3/7/1940,10/9/1940,4235,Palace Theatre,Westminster,O/S,England,51.513209,-0.129447,Music Theatre,Musical,"B J Simmons & Co Ltd, London Palace Ltd",,26,5,Chu Chin Chow,,,
63262,Chu Chin Chow,https://ausstage.edu.au/pages/event/63262,1941,22/7/1941,22/11/1941,4235,Palace Theatre,Westminster,O/S,England,51.513209,-0.129447,Music Theatre,Musical,"B J Simmons & Co Ltd, London Palace Ltd",,22,4,Chu Chin Chow,,,
63721,Circus Oz,https://ausstage.edu.au/pages/event/63721,2003,5/12/2003,11/1/2004,10279,New Victory Theater,New York,O/S,United States of America,40.756343,-73.987634,Other,Circus,Circus Oz,,0,0,,,,
63723,Ellipse,https://ausstage.edu.au/pages/event/63723,2004,17/2/2004,22/2/2004,3510,The Joyce Theater,New York,O/S,United States of America,40.742772,-74.000559,Dance,Contemporary,Sydney Dance Company,,25,1,Ellipse,,,
63784,Circus Oz,https://ausstage.edu.au/pages/event/63784,2004,3/9/2004,26/9/2004,10590,Royal Festival Hall,London,O/S,England,51.5059,-0.116516,Other,Circus,Circus Oz,,3,0,,,,
63878,Ellipse,https://ausstage.edu.au/pages/event/63878,2004,5/2/2004,7/2/2004,10594,Annenberg Center for the Performing Arts,Philadelphia,O/S,United States of America,39.953265,-75.196633,Dance,Contemporary,Sydney Dance Company,,25,0,Ellipse,,,
63879,Ellipse,https://ausstage.edu.au/pages/event/63879,2004,13/2/2004,13/2/2004,10595,Concert Hall,Purchase,O/S,United States of America,41.04851,-73.705268,Dance,Contemporary,Sydney Dance Company,,25,0,Ellipse,,,
63881,Ellipse,https://ausstage.edu.au/pages/event/63881,2004,14/2/2004,14/2/2004,10596,Staller Center for the Performing Arts,Stony Brook,O/S,United States of America,40.915748,-73.12108,Dance,Contemporary,Sydney Dance Company,,25,0,Ellipse,,,
63882,Ellipse,https://ausstage.edu.au/pages/event/63882,2004,24/2/2004,24/2/2004,10597,Gaillard Auditorium,Charleston,O/S,United States of America,32.787992,-79.931304,Dance,Contemporary,Sydney Dance Company,,25,0,Ellipse,,,
63883,Ellipse,https://ausstage.edu.au/pages/event/63883,2004,27/2/2004,28/2/2004,10598,Fox Theatre,St Louis,O/S,United States of America,38.638903,-90.231845,Dance,Contemporary,Sydney Dance Company,,25,0,Ellipse,,,
63884,Ellipse,https://ausstage.edu.au/pages/event/63884,2004,2/3/2004,3/3/2004,10599,Aspen District Theater,Aspen,O/S,United States of America,39.193115,-106.821444,Dance,Contemporary,Sydney Dance Company,,25,0,Ellipse,,,
63885,Ellipse,https://ausstage.edu.au/pages/event/63885,2004,6/3/2004,6/3/2004,10600,Johnson County College,Overland Park,O/S,United States of America,38.97208,-94.698532,Dance,Contemporary,Sydney Dance Company,,25,0,Ellipse,,,
63886,Ellipse,https://ausstage.edu.au/pages/event/63886,2004,9/3/2004,9/3/2004,10601,"University of California, Jackson Hall",Davis,O/S,United States of America,38.534041,-121.748287,Dance,Contemporary,Sydney Dance Company,,25,0,Ellipse,,,
63887,Ellipse,https://ausstage.edu.au/pages/event/63887,2004,12/3/2004,13/3/2004,10602,"Stanford University, Memorial Theater",Palo Alto,O/S,United States of America,37.42869,-122.1666,Dance,Contemporary,Sydney Dance Company,,25,0,Ellipse,,,
63982,Impromptu / Paradigm / Winter By Spring / Stars End,https://ausstage.edu.au/pages/event/63982,1982,23/7/1982,23/7/1982,4569,Lycabettus Theatre,Athens,O/S,Greece,37.984016,23.747066,Dance,Dance Theatre,Australian Dance Theatre,,28,3,,,,
63983,Impromptu / Labyrinth / Flibbertigibbet / Transfigured Night,https://ausstage.edu.au/pages/event/63983,1982,8/7/1982,8/7/1982,4567,Teatro Municipale,Luglio,O/S,Italy,44.700964,10.631368,Dance,Dance Theatre,Australian Dance Theatre,,26,0,,,,
64451,The Bush King,https://ausstage.edu.au/pages/event/64451,1893,1893-11-06,1893-11-06,10635,Surrey Theatre,Southwark,O/S,England,51.498994,-0.104849,Theatre - Spoken Word,Drama,,Australian National Identity,1,0,,,,
64462,The Bushrangers,https://ausstage.edu.au/pages/event/64462,1829,1829-09-08,1829-09-10,10637,Caledonian Theatre,Edinburgh,O/S,Scotland,55.956967,-3.187836,Theatre - Spoken Word,Melodrama,,"Australian National Identity, Colonial",1,0,The Bushrangers,,,
64689,Little Fella Bindi,https://ausstage.edu.au/pages/event/64689,1966,1966,1967,16837,Indonesia,,O/S,Indonesia,-4.425325227,121.6043438,Music Theatre,"Children's Theatre, Puppetry","Marionette Theatre of Australia, The Australian Elizabethan Theatre Trust",Indigenous Australia,2,0,Little Fella Bindi,,,
64722,Tintookies 2000,https://ausstage.edu.au/pages/event/64722,1970,3/7/1970,5/7/1970,10657,Teater Terbuka,Pekanbaru,O/S,Indonesia,0.504839,101.452045,Other,"Music, Puppetry","Marionette Theatre of Australia, The Cleves",,11,0,Tintookies,,,
64819,Forget Me Not,https://ausstage.edu.au/pages/event/64819,1994,6/3/1994,12/3/1994,10681,Hong Kong,,O/S,Hong Kong,22.396428,114.109497,Other,"Dance Theatre, Music Theatre, Physical Theatre, Puppetry, Theatre","Compagnie Philippe Genty, Adelaide Festival Centre Trust",,15,0,Forget Me Not,,,
64820,Forget Me Not,https://ausstage.edu.au/pages/event/64820,1994,15/3/1994,19/3/1994,14453,The Opera House (1977-),Te Aro,O/S,New Zealand,-41.291943,174.777602,Theatre - Spoken Word,"Dance Theatre, Music Theatre, Physical Theatre, Puppetry, Theatre","Compagnie Philippe Genty, Adelaide Festival Centre Trust, Energy Direct",,15,0,Forget Me Not,,,
64831,Passagers Clandestins,https://ausstage.edu.au/pages/event/64831,1996,17/9/1996,17/10/1996,10683,Theatre de la Porte Saint-Martin,Paris,O/S,France,48.86889,2.357072,Other,"Dance Theatre, Museum Theatre, Puppetry, Theatre","Compagnie Philippe Genty, Adelaide Festival Centre Trust, Perth International Arts Festival, Queensland Performing Arts Trust, State Theatre Company of South Australia, Victorian Arts Centre Trust",,9,0,,,,
64838,DeDale (The Maze),https://ausstage.edu.au/pages/event/64838,2000,8/3/2000,11/3/2000,10685,ASB Theatre,Auckland,O/S,New Zealand,-36.852209,174.76112,Other,"Dance Theatre, Drama, Music Theatre, Puppetry","Compagnie Philippe Genty, Théâtre de la Ville Paris",,16,0,,,,
64865,Luisillo and his Spanish Dance Theatre,https://ausstage.edu.au/pages/event/64865,1958,16/6/1958,1958,11245,"Theatre Royal, Christchurch",Christchurch,O/S,New Zealand,-43.529718,172.638175,Other,"Dance Theatre, Flamenco, Song","Luisillo and his Spanish Dance Theatre, R. J. Kerridge, J C Williamson Theatres Limited (1943-1976)",,25,0,,,,
64880,Luisillo and his Spanish Dance Theatre,https://ausstage.edu.au/pages/event/64880,1962,1962,1962,11008,Grand Opera House (1914-1977),Wellington,O/S,New Zealand,-41.2917234,174.7776787,Other,"Dance, Flamenco, Music, Song","Luisillo and his Spanish Dance Theatre, J C Williamson Theatres Limited (1943-1976)",,11,0,,,,
64931,Circus Oz,https://ausstage.edu.au/pages/event/64931,1998,21/6/1998,29/6/1998,13789,Kallang Theatre,Kallang,O/S,Singapore,1.301968,103.875801,Other,"Circus, Music, Variety","Circus Oz, The Singapore Arts Festival (1977-2012)",,1,0,,,,
64937,Circus Oz,https://ausstage.edu.au/pages/event/64937,1999,3/2/1999,21/3/1999,13951,Tollwood Tent,Munich,O/S,Germany,48.13079,11.55122,Other,"Circus, Music, Variety","Circus Oz, Arts Victoria, Australia Council for the Arts, Edgley International, Circus Oz Band",,23,0,,,,
64947,Circus Oz,https://ausstage.edu.au/pages/event/64947,2000,22/2/2000,26/2/2000,10706,The Regent Theatre,Stoke-on-Trent,O/S,England,53.024681,-2.177107,Other,"Circus, Music, Variety","Circus Oz, Circus Australia Ltd, Fifth Amendment, Arts Victoria, Australia Council for the Arts, Circus Oz Band",,21,0,,,,
64948,Circus Oz,https://ausstage.edu.au/pages/event/64948,2000,29/2/2000,6/3/2000,3583,West Yorkshire Playhouse,Leeds,O/S,England,53.798042,-1.534456,Other,"Circus, Music, Variety","Circus Oz, Circus Australia Ltd, Fifth Amendment, Arts Victoria, Australia Council for the Arts, Circus Oz Band",,21,0,,,,
64949,Circus Oz,https://ausstage.edu.au/pages/event/64949,2000,7/3/2000,13/3/2000,10707,"Theatre Royal, Norwich",Norwich,O/S,England,52.627325,1.29002,Other,"Circus, Music, Variety","Circus Oz, Circus Australia Ltd, Fifth Amendment, Arts Victoria, Australia Council for the Arts, Circus Oz Band",,21,0,,,,
64950,Circus Oz,https://ausstage.edu.au/pages/event/64950,2000,14/3/2000,20/3/2000,10110,Chichester Festival Theatre,Chichester,O/S,England,50.8428899,-0.777384,Other,"Circus, Music, Variety","Circus Oz, Circus Australia Ltd, Fifth Amendment, Arts Victoria, Australia Council for the Arts, Circus Oz Band",,21,0,,,,
